~VERSION INFORMATION
VERS.                           2.0:CWLS LOG ASCII STANDARD -VERSION 2.0
WRAP.                            NO:ONE LINE PER DEPTH STEP
~WELL INFORMATION
STRT.M                       128.40:ëíÄêí
STOP.M                       901.90:ëíéè
STEP.M                         0.10:òÄÉ
NULL.                       -999.25:NULL  VALUES
OPER.              å†™†‡•¢·™®© Ö.Ä.:éèÖêÄíéê
WELL.                           169:ëäÇÄÜàçÄ
KUST.                              :äìëí
FLD.                               :èãéôÄÑú
MEST.                   Ä™·Ó‚®≠·™Æ•:åÖëíéêéÜÑÖçàÖ
COMM.                              :äéååÖçíÄêàâ
DIRECTION.                   èéÑöå:çÄèêÄÇãÖçàÖ áÄèàëà
DATE.                    16/10/2024:ÑÄíÄ êÖÉàëíêÄñàà
TIME.                      21-46-13:ÇêÖåü êÖÉàëíêÄñàà
DATO.                    16/10/2024:ÑÄíÄ éäéçóÄçàü êÖÉàëíêÄñàà
TIMO.                      22-29-03:ÇêÖåü éäéçóÄçàü êÖÉàëíêÄñàà
ZABOY.                          897:É´„°®≠† ß†°ÆÔ
SV.¨/Á                        -1094:ë‡•§≠ÔÔ ·™Æ‡Æ·‚Ï
~CURVE INFORMATION
DEPT.M                             :
TIME.                              :
MAPO.                              :
SPD .M/H                           :
IK.¨ë¨/¨                           :20.67; 100*(k2-k3)/(k4-k3)+S0; S0 = 0; 
IK_Om.Om*m                         :19.97; 1000/y2; S0 = 0; 
BK.é¨¨                             :18.68; U/S*0.237; 
A4*0M0*5N.O¨¨                      :11.25; if (k13-k17)>P then 1000*(k12-k16)/(k10-k16) else 100*(k13-k17)/(k29-k17); 
A8*0M1*0N.é¨¨                      :15.50; if (k15-k17)>P then 1000*(k14-k16)/(k10-k16) else 100*(k15-k17)/(k29-k17); 
A0*4M0*1N.é¨¨                      :13.95; if (k19-k17)>P then 200*(k18-k16)/(k10-k16) else 20*(k19-k17)/(k29-k17); 
A1*0M0*1N.é¨¨                      :14.55; if (k21-k17)>P then 1000*(k20-k16)/(k10-k16) else 100*(k21-k17)/(k29-k17); 
A2*0M0*5N.é¨¨                      :15.75; if (k23-k17)>P then 1000*(k22-k16)/(k10-k16) else 100*(k23-k17)/(k29-k17); 
N0*5M2*0A.é¨¨                      :11.25; if (k25-k17)>P then 1000*(k24-k16)/(k10-k16) else 100*(k25-k17)/(k29-k17); 
N11*0M0*5A.é¨¨                     :13.25; if (k27-k17)>P then 200*(k26-k16)/(k10-k16) else 20*(k27-k17)/(k29-k17); 
PS.                                :11.25; k_acp3 / 6; 
R.é¨¨                              :6.00; (k11-k16)/(k10-k16)*Kp; Kp = 0.68; 
TOK.Ä                              :0.00; 0.7-(k1-k30)/(k32/2); 
Nat.                               :0.00; k_tense; 
Speed.                             :0.00; k_speed; 
Nat.                               :0.00; k_tense; 
~PARAMETER INFORMATION
~Other information block
PLT.                      ä1Ä-723-å:ç†ß¢†≠®• Ø´†≠Ë•‚†
IPRB.                       ä1Ä-723:à¨Ô Ø‡®°Æ‡†
NPRB.                            15:çÆ¨•‡ Ø‡®°Æ‡†
R_TYPE.                      VULCAN:í®Ø ‡•£®·‚‡†‚Æ‡†
POW_VER.                       0x80:Ç•‡·®Ô Ø´†‚Î Ø®‚†≠®Ô
GAIN_1.                        1.49:ì·®´•≠®• ¸1
GAIN_2.                           0:ì·®´•≠®• ¸2
GAIN_3.                           0:ì·®´•≠®• ¸3
PRG_1+.                           5:èÆ‡Æ£ 1+
PRG_1-.                        2.35:èÆ‡Æ£ 1-
PRG_2+.                           5:èÆ‡Æ£ 2+
PRG_2-.                           5:èÆ‡Æ£ 2-
PRG_3+.                           5:èÆ‡Æ£ 3+
PRG_3-.                           5:èÆ‡Æ£ 3-
LAST_CMD.                          :èÆ·´•§≠ÔÔ ™Æ¨†≠§†
RELE.                      18640550:ëÆ·‚ÆÔ≠®• ‡•´•
DRV.    kis1.bit (07.11.2001  9:29):Ñ‡†©¢•‡
SkIn1M.                    99.30181:à¨Ø„´Ï·Æ¢ òä ≠† 1 ¨•‚‡
REG_SN.                        -999:¸ ‡•£®·‚‡†‚Æ‡†
~ASCII Log Data
# ...
689.400       215917.266       0.000   -1111.328     102.992       8.635     283.385      52.194     144.006       1.336       6.656      25.192      56.120      42.489      82.233       0.091       0.390      94.371    1111.328      94.371
689.500       215916.906       0.000   -1088.873     105.689       8.550     309.466      52.266     143.607       1.341       6.699      25.376      55.983      42.731     112.556       0.091       0.391      93.607    1088.873      93.607
689.600       215916.547       0.000   -1102.229     107.411       8.490     296.555      52.540     143.245       1.349       6.744      25.555      55.863      42.940      94.722       0.091       0.390      95.745    1102.229      95.745
689.700       215916.266       0.000   -1119.841     109.081       8.469     288.274      52.780     143.078       1.357       6.800      25.711      55.688      43.128      99.143       0.091       0.391      96.019    1119.841      96.019
689.800       215915.953       0.000   -1135.872     110.809       8.465     280.522      52.973     142.929       1.369       6.857      25.858      55.632      43.328     100.700       0.091       0.391      95.069    1135.872      95.069
689.900       215915.594       0.000   -1101.269     112.213       8.504     241.616      53.119     142.759       1.374       6.875      26.000      55.607      43.536      65.310       0.091       0.390      95.367    1101.269      95.367
690.000       215915.281       0.000   -1114.447     113.843       8.619     214.235      53.313     142.538       1.367       6.881      26.107      55.607      43.736     103.875       0.091       0.393      96.606    1114.447      96.606
690.100       215914.953       0.000   -1111.028     115.814       8.803     213.018      53.510     142.355       1.375       6.875      26.161      55.630      43.934     115.976       0.091       0.389      92.655    1111.028      92.655
690.200       215914.688       0.000   -1108.448     116.962       8.950     220.446      53.778     142.143       1.376       6.907      26.242      55.659      44.112      91.357       0.091       0.390      95.628    1108.448      95.628
690.300       215914.375       0.000   -1147.233     117.788       9.012     233.067      54.137     141.896       1.378       6.914      26.399      55.656      44.330     104.300       0.091       0.389      98.952    1147.233      98.952
690.400       215914.000       0.000   -1140.475     118.079       9.050     262.742      54.557     141.616       1.388       6.960      26.516      55.669      44.550      95.500       0.091       0.390      98.137    1140.475      98.137
690.500       215913.688       0.000   -1144.256     118.129       9.061     263.359      55.034     141.410       1.393       6.993      26.654      55.664      44.722     115.933       0.091       0.391      94.585    1144.256      94.585
690.600       215913.344       0.000   -1117.759     117.598       9.125     246.707      55.536     141.253       1.394       7.005      26.785      55.653      44.892     108.976       0.091       0.391      90.269    1117.759      90.269
690.700       215913.063       0.000   -1096.361     116.023       9.193     235.659      56.020     141.148       1.401       7.057      26.904      55.656      45.096      88.778       0.091       0.391      92.597    1096.361      92.597
690.800       215912.781       0.000   -1097.082     113.595       9.256     224.611      56.455     141.025       1.402       7.082      27.025      55.757      45.314     117.722       0.090       0.391      94.650    1097.082      94.650
690.900       215912.438       0.000   -1083.608     111.737       9.295     221.720      56.787     140.806       1.406       7.068      27.112      55.785      45.510      89.867       0.090       0.390      96.661    1083.608      96.661
691.000       215912.063       0.000   -1081.686     110.966       9.296     228.141      57.187     140.577       1.409       7.101      27.201      55.840      45.686     104.417       0.090       0.392      93.868    1081.686      93.868
691.100       215911.750       0.000   -1086.359     110.502       9.119     223.092      57.531     140.273       1.411       7.102      27.242      55.850      45.870     100.933       0.090       0.389      91.756    1086.359      91.756
691.200       215911.469       0.000   -1094.507     110.369       8.935     202.361      57.760     139.978       1.411       7.124      27.297      55.862      46.060      96.722       0.090       0.390      89.845    1094.507      89.845
691.300       215911.094       0.000   -1113.755     109.593       8.809     188.283      57.977     139.595       1.410       7.089      27.280      55.941      46.281     108.444       0.090       0.391      92.527    1113.755      92.527
691.400       215910.750       0.000   -1093.861     108.773       8.678     176.215      58.149     139.003       1.404       7.085      27.266      56.073      46.491      99.286       0.089       0.391      92.499    1093.861      92.499
691.500       215910.469       0.000   -1115.649     108.038       8.538     171.904      58.246     138.426       1.397       7.044      27.216      56.242      46.674      98.600       0.090       0.390      92.499    1115.649      92.499
691.600       215910.094       0.000   -1074.531     107.583       8.527     170.249      58.290     137.767       1.395       7.027      27.175      56.448      46.895     103.167       0.090       0.390      94.585    1074.531      94.585
691.700       215909.781       0.000   -1056.613     107.572       8.568     165.356      58.304     136.825       1.391       6.996      27.073      56.707      47.135     103.861       0.090       0.390      91.782    1056.613      91.782
691.800       215909.438       0.000   -1057.270     109.661       8.654     167.350      58.261     135.994       1.385       6.965      26.961      56.865      47.346     109.976       0.089       0.391      89.057    1057.270      89.057
691.900       215909.188       1.000   -1082.873     111.925       8.769     173.485      58.193     135.172       1.371       6.931      26.845      56.989      47.563      94.778       0.089       0.391      94.063    1082.873      94.063
692.000       215908.797       1.000   -1114.080     113.525       8.973     162.682      58.032     134.128       1.363       6.871      26.635      57.143      47.758      98.667       0.089       0.389      92.792    1114.080      92.792
692.100       215908.063       0.000   -1097.647     115.235       9.176     145.304      57.762     133.013       1.353       6.819      26.430      57.293      47.972     123.000       0.090       0.391      89.135    1097.647      89.135
692.200       215907.797       0.000   -1094.488     117.119       9.344     139.591      57.489     132.019       1.335       6.738      26.246      57.425      48.215      95.389       0.090       0.391      89.737    1094.488      89.737
692.300       215907.375       0.000   -1095.553     117.276       9.392     140.824      57.027     130.990       1.320       6.649      25.960      57.673      48.444     112.643       0.090       0.391      87.740    1095.553      87.740
692.400       215907.047       0.000   -1117.759     116.713       9.530     134.400      56.578     130.148       1.304       6.608      25.654      58.001      48.677     134.778       0.089       0.391      86.319    1117.759      86.319
692.500       215906.797       0.000   -1127.870     115.553       9.630     146.087      56.243     129.203       1.280       6.482      25.454      58.280      48.904      91.300       0.090       0.391      89.859    1127.870      89.859
692.600       215906.484       0.000   -1107.152     114.035       9.667     170.647      55.883     128.478       1.267       6.412      25.246      58.573      49.127     113.357       0.089       0.390      90.934    1107.152      90.934
692.700       215906.047       0.000   -1108.386     111.508       9.681     184.695      55.604     128.060       1.267       6.399      25.099      58.946      49.358     107.238       0.089       0.391      88.627    1108.386      88.627
