~VERSION INFORMATION
VERS.                           2.0:CWLS LOG ASCII STANDARD -VERSION 2.0
WRAP.                            NO:ONE LINE PER DEPTH STEP
~WELL INFORMATION
STRT.M                       128.40:ëíÄêí
STOP.M                       901.90:ëíéè
STEP.M                         0.10:òÄÉ
NULL.                       -999.25:NULL  VALUES
OPER.              å†™†‡•¢·™®© Ö.Ä.:éèÖêÄíéê
WELL.                           169:ëäÇÄÜàçÄ
KUST.                              :äìëí
FLD.                               :èãéôÄÑú
MEST.                   Ä™·Ó‚®≠·™Æ•:åÖëíéêéÜÑÖçàÖ
COMM.                              :äéååÖçíÄêàâ
DIRECTION.                   èéÑöå:çÄèêÄÇãÖçàÖ áÄèàëà
DATE.                    16/10/2024:ÑÄíÄ êÖÉàëíêÄñàà
TIME.                      21-46-13:ÇêÖåü êÖÉàëíêÄñàà
DATO.                    16/10/2024:ÑÄíÄ éäéçóÄçàü êÖÉàëíêÄñàà
TIMO.                      22-29-03:ÇêÖåü éäéçóÄçàü êÖÉàëíêÄñàà
ZABOY.                          897:É´„°®≠† ß†°ÆÔ
SV.¨/Á                        -1094:ë‡•§≠ÔÔ ·™Æ‡Æ·‚Ï
~CURVE INFORMATION
DEPT.M                             :
TIME.                              :
MAPO.                              :
SPD .M/H                           :
IK.¨ë¨/¨                           :20.67; 100*(k2-k3)/(k4-k3)+S0; S0 = 0; 
IK_Om.Om*m                         :19.97; 1000/y2; S0 = 0; 
BK.é¨¨                             :18.68; U/S*0.237; 
A4*0M0*5N.O¨¨                      :11.25; if (k13-k17)>P then 1000*(k12-k16)/(k10-k16) else 100*(k13-k17)/(k29-k17); 
A8*0M1*0N.é¨¨                      :15.50; if (k15-k17)>P then 1000*(k14-k16)/(k10-k16) else 100*(k15-k17)/(k29-k17); 
A0*4M0*1N.é¨¨                      :13.95; if (k19-k17)>P then 200*(k18-k16)/(k10-k16) else 20*(k19-k17)/(k29-k17); 
A1*0M0*1N.é¨¨                      :14.55; if (k21-k17)>P then 1000*(k20-k16)/(k10-k16) else 100*(k21-k17)/(k29-k17); 
A2*0M0*5N.é¨¨                      :15.75; if (k23-k17)>P then 1000*(k22-k16)/(k10-k16) else 100*(k23-k17)/(k29-k17); 
N0*5M2*0A.é¨¨                      :11.25; if (k25-k17)>P then 1000*(k24-k16)/(k10-k16) else 100*(k25-k17)/(k29-k17); 
N11*0M0*5A.é¨¨                     :13.25; if (k27-k17)>P then 200*(k26-k16)/(k10-k16) else 20*(k27-k17)/(k29-k17); 
PS.                                :11.25; k_acp3 / 6; 
R.é¨¨                              :6.00; (k11-k16)/(k10-k16)*Kp; Kp = 0.68; 
TOK.Ä                              :0.00; 0.7-(k1-k30)/(k32/2); 
Nat.                               :0.00; k_tense; 
Speed.                             :0.00; k_speed; 
Nat.                               :0.00; k_tense; 
~PARAMETER INFORMATION
~Other information block
PLT.                      ä1Ä-723-å:ç†ß¢†≠®• Ø´†≠Ë•‚†
IPRB.                       ä1Ä-723:à¨Ô Ø‡®°Æ‡†
NPRB.                            15:çÆ¨•‡ Ø‡®°Æ‡†
R_TYPE.                      VULCAN:í®Ø ‡•£®·‚‡†‚Æ‡†
POW_VER.                       0x80:Ç•‡·®Ô Ø´†‚Î Ø®‚†≠®Ô
GAIN_1.                        1.49:ì·®´•≠®• ¸1
GAIN_2.                           0:ì·®´•≠®• ¸2
GAIN_3.                           0:ì·®´•≠®• ¸3
PRG_1+.                           5:èÆ‡Æ£ 1+
PRG_1-.                        2.35:èÆ‡Æ£ 1-
PRG_2+.                           5:èÆ‡Æ£ 2+
PRG_2-.                           5:èÆ‡Æ£ 2-
PRG_3+.                           5:èÆ‡Æ£ 3+
PRG_3-.                           5:èÆ‡Æ£ 3-
LAST_CMD.                          :èÆ·´•§≠ÔÔ ™Æ¨†≠§†
RELE.                      18640550:ëÆ·‚ÆÔ≠®• ‡•´•
DRV.    kis1.bit (07.11.2001  9:29):Ñ‡†©¢•‡
SkIn1M.                    99.30181:à¨Ø„´Ï·Æ¢ òä ≠† 1 ¨•‚‡
REG_SN.                        -999:¸ ‡•£®·‚‡†‚Æ‡†
~ASCII Log Data
# ...
189.600       222546.125       0.000   -1189.712     -30.951     -30.915       0.086      -0.097       0.168       0.008       0.008       0.040      -0.032       0.023     172.333       0.074       0.399      10.169    1189.712      10.169
189.700       222545.844       0.000   -1179.808     -30.845     -29.987       0.065      -0.097       0.202       0.011       0.000       0.039      -0.032       0.023     159.444       0.075       0.398      10.299    1179.808      10.299
189.800       222545.531       0.000   -1178.198     -30.981     -29.937       0.064      -0.086       0.194       0.010       0.006       0.054      -0.022       0.029     176.583       0.074       0.399      14.784    1178.198      14.784
189.900       222545.250       0.000   -1138.755     -32.435     -30.714       0.060      -0.081       0.194       0.008      -0.008       0.039      -0.032       0.025     172.600       0.074       0.398      10.169    1138.755      10.169
190.000       222544.969       0.000   -1117.504     -32.858     -30.304       0.063      -0.089       0.213       0.015       0.008       0.056      -0.024       0.023     176.722       0.073       0.399      10.169    1117.504      10.169
190.100       222544.656       0.000   -1162.585     -32.893     -29.379       0.107      -0.081       0.204       0.008      -0.008       0.040      -0.022       0.024     175.604       0.075       0.397      10.169    1162.585      10.169
190.200       222544.250       0.000   -1172.419     -31.977     -28.812       0.101      -0.089       0.194       0.011       0.000       0.048      -0.024       0.027     186.633       0.074       0.400      10.169    1172.419      10.169
190.300       222543.938       0.000   -1153.780     -32.347     -29.063       0.106      -0.097       0.202       0.008      -0.008       0.052      -0.032       0.027     161.933       0.074       0.399      10.325    1153.780      10.325
190.400       222543.656       0.000   -1165.156     -33.347     -28.408       0.098      -0.073       0.226       0.010       0.000       0.054      -0.032       0.027     179.000       0.075       0.399      10.267    1165.156      10.267
190.500       222543.375       0.000   -1158.163     -33.404     -27.727       0.143      -0.073       0.202       0.010      -0.008       0.039      -0.024       0.021     165.000       0.074       0.399      10.208    1158.163      10.208
190.600       222543.063       0.000   -1160.170     -32.558     -28.030       0.042      -0.089       0.194       0.009       0.008       0.040      -0.032       0.026     145.800       0.076       0.398      10.225    1160.170      10.225
190.700       222542.719       0.000   -1165.156     -32.998     -29.639       0.027      -0.084       0.200       0.006      -0.008       0.065      -0.032       0.023     161.833       0.075       0.398      10.169    1165.156      10.169
190.800       222542.406       0.000   -1159.500     -34.038     -29.686       0.077      -0.081       0.202       0.006       0.000       0.040      -0.016       0.023     177.083       0.076       0.399      10.169    1159.500      10.169
190.900       222542.125       0.000   -1124.844     -34.708     -29.790       0.085      -0.071       0.218       0.010      -0.008       0.032      -0.019       0.019     196.476       0.076       0.399      10.091    1124.844      10.091
191.000       222541.844       0.000   -1176.808     -34.408     -29.823       0.105      -0.089       0.210       0.010       0.013       0.039      -0.024       0.025     198.967       0.076       0.400      10.057    1176.808      10.057
191.100       222541.469       0.000   -1178.760     -35.201     -31.018       0.106      -0.081       0.202       0.008       0.008       0.040      -0.016       0.021     136.917       0.074       0.399      10.104    1178.760      10.104
191.200       222541.156       0.000   -1200.709     -36.066     -31.852       0.097      -0.084       0.202       0.008      -0.006       0.056      -0.019       0.023     191.444       0.075       0.400      16.264    1200.709      16.264
191.300       222540.813       0.000   -1153.844     -35.677     -33.349       0.102      -0.089       0.200       0.008       0.000       0.048      -0.032       0.024     173.333       0.075       0.399      13.063    1153.844      13.063
191.400       222540.563       0.000   -1122.268     -33.739     -35.653       0.111      -0.086       0.194       0.008      -0.008       0.040      -0.032       0.026     176.083       0.074       0.399      11.766    1122.268      11.766
191.500       222540.250       0.000   -1126.558     -33.686     -36.478       0.051      -0.077       0.194       0.006       0.013       0.040      -0.019       0.022     175.810       0.074       0.400      12.750    1126.558      12.750
191.600       222539.969       0.000   -1153.454     -33.568     -36.812       0.051      -0.081       0.202       0.009       0.008       0.039      -0.032       0.021     186.933       0.074       0.398       9.973    1153.454       9.973
191.700       222539.656       0.000   -1167.042     -33.531     -35.383       0.121      -0.073       0.202       0.008       0.008       0.032      -0.016       0.024     168.917       0.075       0.398      10.136    1167.042      10.136
191.800       222539.344       0.000   -1142.351     -32.239     -35.468       0.046      -0.065       0.194       0.006       0.000       0.040      -0.019       0.024     153.500       0.075       0.399      11.962    1142.351      11.962
191.900       222539.016       1.000   -1133.547     -31.395     -35.102       0.095      -0.097       0.207       0.008      -0.008       0.048      -0.032       0.023     147.861       0.074       0.398      11.929    1133.547      11.929
192.000       222538.766       1.000   -1114.575     -29.986     -35.639       0.086      -0.089       0.210       0.010       0.008       0.040      -0.024       0.024     183.767       0.075       0.398      10.169    1114.575      10.169
192.100       222538.156       0.000   -1135.132     -28.048     -38.811       0.059      -0.089       0.200       0.008      -0.006       0.032      -0.032       0.024     186.167       0.075       0.399      11.733    1135.132      11.733
192.200       222537.844       0.000   -1139.927     -27.414     -38.347       0.076      -0.089       0.194       0.008       0.000       0.045      -0.024       0.026     143.133       0.075       0.399      12.242    1139.927      12.242
192.300       222537.563       0.000   -1163.067     -27.165     -36.705       0.071      -0.073       0.194       0.010       0.000       0.048      -0.016       0.021     200.722       0.074       0.399       9.973    1163.067       9.973
192.400       222537.203       0.000   -1168.388     -28.262     -36.076       0.071      -0.089       0.207       0.006       0.000       0.045      -0.024       0.023     193.467       0.074       0.400      11.175    1168.388      11.175
192.500       222536.844       0.000   -1158.175     -28.194     -35.833       0.058      -0.091       0.210       0.013       0.000       0.032      -0.032       0.024     186.875       0.074       0.398      12.789    1158.175      12.789
192.600       222536.547       0.000   -1167.157     -28.488     -34.862       0.069      -0.075       0.226       0.006       0.000       0.032      -0.032       0.021     212.333       0.075       0.398      16.280    1167.157      16.280
192.700       222536.313       0.000   -1141.189     -28.059     -32.194       0.053      -0.089       0.218       0.010       0.000       0.045      -0.032       0.022     193.367       0.075       0.399       9.973    1141.189       9.973
192.800       222535.922       0.000   -1161.115     -25.766     -29.724       0.089      -0.089       0.218       0.008      -0.005       0.040      -0.024       0.027     142.278       0.074       0.399      10.013    1161.115      10.013
192.900       222535.672       0.000   -1150.308     -26.078     -28.551       0.063      -0.097       0.234       0.010       0.000       0.048      -0.032       0.027     180.300       0.074       0.398      10.006    1150.308      10.006
