~VERSION INFORMATION
VERS.                           2.0:CWLS LOG ASCII STANDARD -VERSION 2.0
WRAP.                            NO:ONE LINE PER DEPTH STEP
~WELL INFORMATION
STRT.M                       128.40:ëíÄêí
STOP.M                       901.90:ëíéè
STEP.M                         0.10:òÄÉ
NULL.                       -999.25:NULL  VALUES
OPER.              å†™†‡•¢·™®© Ö.Ä.:éèÖêÄíéê
WELL.                           169:ëäÇÄÜàçÄ
KUST.                              :äìëí
FLD.                               :èãéôÄÑú
MEST.                   Ä™·Ó‚®≠·™Æ•:åÖëíéêéÜÑÖçàÖ
COMM.                              :äéååÖçíÄêàâ
DIRECTION.                   èéÑöå:çÄèêÄÇãÖçàÖ áÄèàëà
DATE.                    16/10/2024:ÑÄíÄ êÖÉàëíêÄñàà
TIME.                      21-46-13:ÇêÖåü êÖÉàëíêÄñàà
DATO.                    16/10/2024:ÑÄíÄ éäéçóÄçàü êÖÉàëíêÄñàà
TIMO.                      22-29-03:ÇêÖåü éäéçóÄçàü êÖÉàëíêÄñàà
ZABOY.                          897:É´„°®≠† ß†°ÆÔ
SV.¨/Á                        -1094:ë‡•§≠ÔÔ ·™Æ‡Æ·‚Ï
~CURVE INFORMATION
DEPT.M                             :
TIME.                              :
MAPO.                              :
SPD .M/H                           :
IK.¨ë¨/¨                           :20.67; 100*(k2-k3)/(k4-k3)+S0; S0 = 0; 
IK_Om.Om*m                         :19.97; 1000/y2; S0 = 0; 
BK.é¨¨                             :18.68; U/S*0.237; 
A4*0M0*5N.O¨¨                      :11.25; if (k13-k17)>P then 1000*(k12-k16)/(k10-k16) else 100*(k13-k17)/(k29-k17); 
A8*0M1*0N.é¨¨                      :15.50; if (k15-k17)>P then 1000*(k14-k16)/(k10-k16) else 100*(k15-k17)/(k29-k17); 
A0*4M0*1N.é¨¨                      :13.95; if (k19-k17)>P then 200*(k18-k16)/(k10-k16) else 20*(k19-k17)/(k29-k17); 
A1*0M0*1N.é¨¨                      :14.55; if (k21-k17)>P then 1000*(k20-k16)/(k10-k16) else 100*(k21-k17)/(k29-k17); 
A2*0M0*5N.é¨¨                      :15.75; if (k23-k17)>P then 1000*(k22-k16)/(k10-k16) else 100*(k23-k17)/(k29-k17); 
N0*5M2*0A.é¨¨                      :11.25; if (k25-k17)>P then 1000*(k24-k16)/(k10-k16) else 100*(k25-k17)/(k29-k17); 
N11*0M0*5A.é¨¨                     :13.25; if (k27-k17)>P then 200*(k26-k16)/(k10-k16) else 20*(k27-k17)/(k29-k17); 
PS.                                :11.25; k_acp3 / 6; 
R.é¨¨                              :6.00; (k11-k16)/(k10-k16)*Kp; Kp = 0.68; 
TOK.Ä                              :0.00; 0.7-(k1-k30)/(k32/2); 
Nat.                               :0.00; k_tense; 
Speed.                             :0.00; k_speed; 
Nat.                               :0.00; k_tense; 
~PARAMETER INFORMATION
~Other information block
PLT.                      ä1Ä-723-å:ç†ß¢†≠®• Ø´†≠Ë•‚†
IPRB.                       ä1Ä-723:à¨Ô Ø‡®°Æ‡†
NPRB.                            15:çÆ¨•‡ Ø‡®°Æ‡†
R_TYPE.                      VULCAN:í®Ø ‡•£®·‚‡†‚Æ‡†
POW_VER.                       0x80:Ç•‡·®Ô Ø´†‚Î Ø®‚†≠®Ô
GAIN_1.                        1.49:ì·®´•≠®• ¸1
GAIN_2.                           0:ì·®´•≠®• ¸2
GAIN_3.                           0:ì·®´•≠®• ¸3
PRG_1+.                           5:èÆ‡Æ£ 1+
PRG_1-.                        2.35:èÆ‡Æ£ 1-
PRG_2+.                           5:èÆ‡Æ£ 2+
PRG_2-.                           5:èÆ‡Æ£ 2-
PRG_3+.                           5:èÆ‡Æ£ 3+
PRG_3-.                           5:èÆ‡Æ£ 3-
LAST_CMD.                          :èÆ·´•§≠ÔÔ ™Æ¨†≠§†
RELE.                      18640550:ëÆ·‚ÆÔ≠®• ‡•´•
DRV.    kis1.bit (07.11.2001  9:29):Ñ‡†©¢•‡
SkIn1M.                    99.30181:à¨Ø„´Ï·Æ¢ òä ≠† 1 ¨•‚‡
REG_SN.                        -999:¸ ‡•£®·‚‡†‚Æ‡†
~ASCII Log Data
# ...
890.000         -999.250    -999.250    -999.250     343.072       4.096       3.486       5.523       8.049       0.933       3.175       5.156      10.461       5.449     184.550    -999.250    -999.250    -999.250    -999.250    -999.250
890.100         -999.250    -999.250    -999.250     352.647       4.309       3.913       5.518       8.304       0.900       3.154       5.264      10.460       5.652     201.889    -999.250    -999.250    -999.250    -999.250    -999.250
890.200         -999.250    -999.250    -999.250     347.441       4.320       4.744       5.531       8.536       0.897       3.160       5.382      10.463       5.822     185.433    -999.250    -999.250    -999.250    -999.250    -999.250
890.300         -999.250    -999.250    -999.250     329.238       4.285       6.289       5.523       8.767       0.924       3.186       5.591      10.459       5.984     164.979    -999.250    -999.250    -999.250    -999.250    -999.250
890.400         -999.250    -999.250    -999.250     309.749       4.268       7.501       5.512       8.928       0.988       3.288       5.829      10.448       6.108     188.667    -999.250    -999.250    -999.250    -999.250    -999.250
890.500         -999.250    -999.250    -999.250     291.091       4.240       7.838       5.522       9.087       1.012       3.346       6.038      10.464       6.205     182.750    -999.250    -999.250    -999.250    -999.250    -999.250
890.600         -999.250    -999.250    -999.250     265.152       4.201       7.369       5.527       9.226       1.064       3.409       6.248      10.459       6.310     194.944    -999.250    -999.250    -999.250    -999.250    -999.250
890.700         -999.250    -999.250    -999.250     244.112       4.092       5.976       5.518       9.296       1.079       3.367       6.409      10.460       6.422     189.283    -999.250    -999.250    -999.250    -999.250    -999.250
890.800         -999.250    -999.250    -999.250     232.078       3.970       7.044       5.522       9.369       1.038       3.218       6.624      10.463       6.541     169.405    -999.250    -999.250    -999.250    -999.250    -999.250
890.900         -999.250    -999.250    -999.250     231.480       3.912      10.294       5.522       9.445       1.077       3.386       6.878      10.464       6.617     190.630    -999.250    -999.250    -999.250    -999.250    -999.250
891.000         -999.250    -999.250    -999.250     233.347       4.000      12.064       5.529       9.509       1.134       3.594       7.146      10.465       6.667     193.771    -999.250    -999.250    -999.250    -999.250    -999.250
891.100         -999.250    -999.250    -999.250     234.291       4.233      11.006       5.518       9.577       1.192       3.843       7.519      10.459       6.765     198.517    -999.250    -999.250    -999.250    -999.250    -999.250
891.200         -999.250    -999.250    -999.250     235.834       4.469       8.138       5.522       9.660       1.218       4.015       7.873      10.459       6.887     163.000    -999.250    -999.250    -999.250    -999.250    -999.250
891.300         -999.250    -999.250    -999.250     238.020       4.715       6.291       5.523       9.752       1.306       4.359       8.121      10.464       6.938     194.548    -999.250    -999.250    -999.250    -999.250    -999.250
891.400         -999.250    -999.250    -999.250     244.365       5.016       5.857       5.531       9.852       1.270       4.300       8.336      10.468       6.942     160.733    -999.250    -999.250    -999.250    -999.250    -999.250
891.500         -999.250    -999.250    -999.250     251.905       5.251       7.822       5.523       9.987       1.284       4.456       8.562      10.455       6.944     188.630    -999.250    -999.250    -999.250    -999.250    -999.250
891.600         -999.250    -999.250    -999.250     255.619       5.501       8.779       5.523      10.093       1.321       4.674       8.632      10.475       6.949     223.000    -999.250    -999.250    -999.250    -999.250    -999.250
891.700         -999.250    -999.250    -999.250     250.000       5.741       7.597       5.523      10.156       1.345       4.825       8.750      10.464       6.947     179.071    -999.250    -999.250    -999.250    -999.250    -999.250
891.800         -999.250    -999.250    -999.250     236.262       5.803       6.924       5.509      10.194       1.305       4.766       8.866      10.464       6.950     187.167    -999.250    -999.250    -999.250    -999.250    -999.250
891.900         -999.250    -999.250    -999.250     223.745       5.705       7.577       5.521      10.185       1.306       4.784       8.921      10.470       6.949     180.633    -999.250    -999.250    -999.250    -999.250    -999.250
892.000         -999.250    -999.250    -999.250     212.104       5.467       9.923       5.528      10.139       1.309       4.858       9.009      10.485       6.950     212.583    -999.250    -999.250    -999.250    -999.250    -999.250
892.100         -999.250    -999.250    -999.250     199.342       5.160      10.591       5.530      10.075       1.308       4.992       9.207      10.472       6.949     181.310    -999.250    -999.250    -999.250    -999.250    -999.250
892.200         -999.250    -999.250    -999.250     190.436       4.942       8.869       5.517      10.046       1.307       5.038       9.434      10.479       6.951     156.417    -999.250    -999.250    -999.250    -999.250    -999.250
892.300         -999.250    -999.250    -999.250     181.780       4.854       8.841       5.535      10.032       1.311       4.861       9.612      10.476       6.949     209.000    -999.250    -999.250    -999.250    -999.250    -999.250
892.400         -999.250    -999.250    -999.250     174.178       4.863      11.247       5.517       9.983       1.306       4.838       9.812      10.459       6.947     157.083    -999.250    -999.250    -999.250    -999.250    -999.250
892.500         -999.250    -999.250    -999.250     172.315       4.945      13.317       5.522       9.910       1.310       4.941      10.216      10.479       6.950     193.267    -999.250    -999.250    -999.250    -999.250    -999.250
892.600         -999.250    -999.250    -999.250     175.270       4.937      13.281       5.520       9.766       1.310       4.984      10.710      10.497       6.949     180.272    -999.250    -999.250    -999.250    -999.250    -999.250
892.700         -999.250    -999.250    -999.250     182.930       4.860      11.602    -999.250       9.634       1.310       4.969      11.227    -999.250       6.949    -999.250    -999.250    -999.250    -999.250    -999.250    -999.250
892.800         -999.250    -999.250    -999.250     193.812       4.700      11.351    -999.250       9.508       1.310       4.974      11.807    -999.250       6.950    -999.250    -999.250    -999.250    -999.250    -999.250    -999.250
892.900         -999.250    -999.250    -999.250     202.331       4.500      10.056    -999.250       9.379       1.311       4.996      12.066    -999.250       6.948    -999.250    -999.250    -999.250    -999.250    -999.250    -999.250
893.000         -999.250    -999.250    -999.250     206.011       4.363       6.352    -999.250       9.264       1.310       4.987      12.097    -999.250       6.951    -999.250    -999.250    -999.250    -999.250    -999.250    -999.250
893.100         -999.250    -999.250    -999.250     205.622       4.362       5.594    -999.250       9.176       1.307       4.992      12.165    -999.250       6.948    -999.250    -999.250    -999.250    -999.250    -999.250    -999.250
893.200         -999.250    -999.250    -999.250     202.213       4.487       7.896    -999.250       9.075       1.310       4.978      12.128    -999.250       6.948    -999.250    -999.250    -999.250    -999.250    -999.250    -999.250
893.300         -999.250    -999.250    -999.250     202.558       4.629      10.448    -999.250       8.832       1.310       4.993      12.014    -999.250       6.949    -999.250    -999.250    -999.250    -999.250    -999.250    -999.250
