~VERSION INFORMATION
VERS.                           2.0:CWLS LOG ASCII STANDARD -VERSION 2.0
WRAP.                            NO:ONE LINE PER DEPTH STEP
~WELL INFORMATION
STRT.M                       128.40:ëíÄêí
STOP.M                       901.90:ëíéè
STEP.M                         0.10:òÄÉ
NULL.                       -999.25:NULL  VALUES
OPER.              å†™†‡•¢·™®© Ö.Ä.:éèÖêÄíéê
WELL.                           169:ëäÇÄÜàçÄ
KUST.                              :äìëí
FLD.                               :èãéôÄÑú
MEST.                   Ä™·Ó‚®≠·™Æ•:åÖëíéêéÜÑÖçàÖ
COMM.                              :äéååÖçíÄêàâ
DIRECTION.                   èéÑöå:çÄèêÄÇãÖçàÖ áÄèàëà
DATE.                    16/10/2024:ÑÄíÄ êÖÉàëíêÄñàà
TIME.                      21-46-13:ÇêÖåü êÖÉàëíêÄñàà
DATO.                    16/10/2024:ÑÄíÄ éäéçóÄçàü êÖÉàëíêÄñàà
TIMO.                      22-29-03:ÇêÖåü éäéçóÄçàü êÖÉàëíêÄñàà
ZABOY.                          897:É´„°®≠† ß†°ÆÔ
SV.¨/Á                        -1094:ë‡•§≠ÔÔ ·™Æ‡Æ·‚Ï
~CURVE INFORMATION
DEPT.M                             :
TIME.                              :
MAPO.                              :
SPD .M/H                           :
IK.¨ë¨/¨                           :20.67; 100*(k2-k3)/(k4-k3)+S0; S0 = 0; 
IK_Om.Om*m                         :19.97; 1000/y2; S0 = 0; 
BK.é¨¨                             :18.68; U/S*0.237; 
A4*0M0*5N.O¨¨                      :11.25; if (k13-k17)>P then 1000*(k12-k16)/(k10-k16) else 100*(k13-k17)/(k29-k17); 
A8*0M1*0N.é¨¨                      :15.50; if (k15-k17)>P then 1000*(k14-k16)/(k10-k16) else 100*(k15-k17)/(k29-k17); 
A0*4M0*1N.é¨¨                      :13.95; if (k19-k17)>P then 200*(k18-k16)/(k10-k16) else 20*(k19-k17)/(k29-k17); 
A1*0M0*1N.é¨¨                      :14.55; if (k21-k17)>P then 1000*(k20-k16)/(k10-k16) else 100*(k21-k17)/(k29-k17); 
A2*0M0*5N.é¨¨                      :15.75; if (k23-k17)>P then 1000*(k22-k16)/(k10-k16) else 100*(k23-k17)/(k29-k17); 
N0*5M2*0A.é¨¨                      :11.25; if (k25-k17)>P then 1000*(k24-k16)/(k10-k16) else 100*(k25-k17)/(k29-k17); 
N11*0M0*5A.é¨¨                     :13.25; if (k27-k17)>P then 200*(k26-k16)/(k10-k16) else 20*(k27-k17)/(k29-k17); 
PS.                                :11.25; k_acp3 / 6; 
R.é¨¨                              :6.00; (k11-k16)/(k10-k16)*Kp; Kp = 0.68; 
TOK.Ä                              :0.00; 0.7-(k1-k30)/(k32/2); 
Nat.                               :0.00; k_tense; 
Speed.                             :0.00; k_speed; 
Nat.                               :0.00; k_tense; 
~PARAMETER INFORMATION
~Other information block
PLT.                      ä1Ä-723-å:ç†ß¢†≠®• Ø´†≠Ë•‚†
IPRB.                       ä1Ä-723:à¨Ô Ø‡®°Æ‡†
NPRB.                            15:çÆ¨•‡ Ø‡®°Æ‡†
R_TYPE.                      VULCAN:í®Ø ‡•£®·‚‡†‚Æ‡†
POW_VER.                       0x80:Ç•‡·®Ô Ø´†‚Î Ø®‚†≠®Ô
GAIN_1.                        1.49:ì·®´•≠®• ¸1
GAIN_2.                           0:ì·®´•≠®• ¸2
GAIN_3.                           0:ì·®´•≠®• ¸3
PRG_1+.                           5:èÆ‡Æ£ 1+
PRG_1-.                        2.35:èÆ‡Æ£ 1-
PRG_2+.                           5:èÆ‡Æ£ 2+
PRG_2-.                           5:èÆ‡Æ£ 2-
PRG_3+.                           5:èÆ‡Æ£ 3+
PRG_3-.                           5:èÆ‡Æ£ 3-
LAST_CMD.                          :èÆ·´•§≠ÔÔ ™Æ¨†≠§†
RELE.                      18640550:ëÆ·‚ÆÔ≠®• ‡•´•
DRV.    kis1.bit (07.11.2001  9:29):Ñ‡†©¢•‡
SkIn1M.                    99.30181:à¨Ø„´Ï·Æ¢ òä ≠† 1 ¨•‚‡
REG_SN.                        -999:¸ ‡•£®·‚‡†‚Æ‡†
~ASCII Log Data
# ...
339.200       221756.422       0.000   -1193.114     259.633       2.316       4.054      10.575       7.044       1.658       6.512      11.692       5.023       3.737      32.357       0.100       0.398      39.079    1193.114      39.079
339.300       221756.141       0.000   -1165.499     289.271       2.223       4.009      10.685       6.699       1.566       6.230      11.643       4.737       3.630      52.000       0.100       0.399      39.112    1165.499      39.112
339.400       221755.766       0.000   -1137.920     317.848       2.149       4.304      10.852       6.307       1.646       6.601      11.523       4.422       3.543      52.048       0.099       0.399      39.251    1137.920      39.251
339.500       221755.422       0.000   -1144.932     339.748       2.095       4.203      10.836       5.891       1.516       6.190      11.184       4.121       3.481      79.250       0.100       0.400      35.592    1144.932      35.592
339.600       221755.141       0.000   -1143.074     362.259       2.059       3.205      10.807       5.568       1.404       5.630      10.952       3.835       3.423      82.119       0.099       0.398      35.429    1143.074      35.429
339.700       221754.828       0.000   -1126.969     381.961       2.017       2.773      10.533       5.068       1.299       5.173      10.490       3.527       3.354      62.733       0.099       0.398      38.408    1126.969      38.408
339.800       221754.547       0.000   -1157.076     405.539       1.978       2.742       9.937       4.633       1.273       4.881      10.119       3.267       3.304      56.714       0.098       0.400      38.553    1157.076      38.553
339.900       221754.172       0.000   -1145.392     431.742       1.962       2.725       9.336       4.196       1.207       4.633       9.837       3.054       3.228      82.476       0.098       0.398      38.720    1145.392      38.720
340.000       221753.922       0.000   -1172.210     449.895       1.944       2.613       8.716       3.825       1.194       4.294       9.491       2.938       3.168     124.767       0.099       0.400      38.460    1172.210      38.460
340.100       221753.609       0.000   -1145.709     465.320       1.915       2.568       8.246       3.510       1.138       4.164       9.112       2.880       3.150     171.667       0.101       0.398      37.156    1145.709      37.156
340.200       221753.234       0.000   -1138.472     477.218       1.894       2.142       7.659       3.285       1.034       3.624       8.748       2.849       3.122     165.867       0.102       0.399      39.046    1138.472      39.046
340.300       221752.922       0.000   -1146.303     485.662       1.857       2.153       7.326       3.026       1.041       3.583       8.361       2.864       3.103     178.333       0.100       0.399      36.993    1146.303      36.993
340.400       221752.578       0.000   -1189.785     495.674       1.814       2.353       6.875       2.817       1.025       3.462       8.078       2.905       3.063     189.000       0.100       0.400      35.904    1189.785      35.904
340.500       221752.328       0.000   -1157.181     505.542       1.777       2.426       6.545       2.602       1.007       3.415       7.901       2.976       2.978     157.714       0.099       0.398      40.676    1157.181      40.676
340.600       221752.016       0.000   -1152.912     509.601       1.738       2.462       6.272       2.413       1.024       3.325       7.626       3.012       2.889     183.000       0.099       0.399      35.200    1152.912      35.200
340.700       221751.703       0.000   -1131.486     514.368       1.708       2.416       5.991       2.318       0.968       3.083       7.328       3.047       2.834     189.381       0.099       0.399      36.243    1131.486      36.243
340.800       221751.438       0.000   -1146.131     522.218       1.693       2.168       5.793       2.220       0.928       2.881       7.031       3.130       2.773     162.200       0.100       0.400      38.883    1146.131      38.883
340.900       221751.109       0.000   -1144.417     527.972       1.666       2.284       5.642       2.123       0.896       2.784       6.795       3.234       2.738     169.071       0.099       0.400      39.079    1144.417      39.079
341.000       221750.766       0.000   -1153.836     538.613       1.624       2.475       5.797       2.021       0.901       2.784       6.883       3.460       2.710     151.139       0.100       0.399      38.804    1153.836      38.804
341.100       221750.438       0.000   -1158.175     551.127       1.582       2.987       6.077       1.897       0.968       2.962       7.014       3.615       2.677     186.833       0.100       0.399      38.525    1158.175      38.525
341.200       221750.125       0.000   -1189.803     562.683       1.529       3.032       6.254       1.808       1.125       3.376       7.070       3.623       2.646     156.300       0.099       0.399      37.286    1189.803      37.286
341.300       221749.844       0.000   -1168.876     575.446       1.502       2.173       6.351       1.735       1.128       3.414       6.992       3.607       2.618     118.944       0.098       0.398      38.394    1168.876      38.394
341.400       221749.484       0.000   -1147.129     585.467       1.498       1.831       6.287       1.666       1.031       3.066       6.715       3.535       2.587      30.867       0.098       0.398      34.457    1147.129      34.457
341.500       221749.234       0.000   -1148.423     590.671       1.518       1.712       6.012       1.590       0.972       2.841       6.166       3.405       2.574      74.417       0.097       0.401      38.297    1148.423      38.297
341.600       221748.906       0.000   -1122.385     600.070       1.539       1.691       5.482       1.525       0.905       2.602       5.544       3.282       2.558      89.271       0.097       0.400      37.743    1122.385      37.743
341.700       221748.625       0.000   -1104.717     615.574       1.564       1.714       5.117       1.404       0.863       2.441       5.100       3.204       2.557     166.533       0.096       0.400      36.061    1104.717      36.061
341.800       221748.313       0.000   -1120.716     632.092       1.566       1.758       4.883       1.307       0.829       2.316       4.721       3.156       2.563     143.500       0.097       0.400      37.906    1120.716      37.906
341.900       221748.031       1.000   -1098.091     653.866       1.559       1.756       4.753       1.227       0.811       2.244       4.431       3.123       2.584     125.267       0.098       0.400      32.919    1098.091      32.919
342.000       221747.656       1.000   -1179.701     665.898       1.555       1.773       4.584       1.162       0.780       2.131       4.172       3.034       2.613     113.056       0.098       0.400      35.396    1179.701      35.396
342.100       221747.094       0.000   -1173.041     667.409       1.550       1.663       4.438       1.097       0.793       2.123       3.906       2.978       2.648     131.867       0.098       0.398      38.357    1173.041      38.357
342.200       221746.719       0.000   -1139.995     658.868       1.580       1.496       4.203       1.025       0.770       2.023       3.615       2.950       2.675     140.357       0.098       0.399      36.061    1139.995      36.061
342.300       221746.438       0.000   -1152.269     649.685       1.645       1.354       3.970       1.009       0.740       1.856       3.381       2.986       2.722      84.633       0.098       0.401      36.178    1152.269      36.178
342.400       221746.063       0.000   -1125.806     639.413       1.749       1.313       3.736       0.969       0.676       1.679       3.079       3.083       2.769     137.528       0.099       0.400      31.778    1125.806      31.778
342.500       221745.844       0.000   -1132.542     638.595       1.911       1.315       3.478       0.962       0.640       1.582       2.833       3.252       2.847     150.967       0.099       0.399      32.211    1132.542      32.211
