~VERSION INFORMATION
VERS.                           2.0:CWLS LOG ASCII STANDARD -VERSION 2.0
WRAP.                            NO:ONE LINE PER DEPTH STEP
~WELL INFORMATION
STRT.M                       128.40:ëíÄêí
STOP.M                       901.90:ëíéè
STEP.M                         0.10:òÄÉ
NULL.                       -999.25:NULL  VALUES
OPER.              å†™†‡•¢·™®© Ö.Ä.:éèÖêÄíéê
WELL.                           169:ëäÇÄÜàçÄ
KUST.                              :äìëí
FLD.                               :èãéôÄÑú
MEST.                   Ä™·Ó‚®≠·™Æ•:åÖëíéêéÜÑÖçàÖ
COMM.                              :äéååÖçíÄêàâ
DIRECTION.                   èéÑöå:çÄèêÄÇãÖçàÖ áÄèàëà
DATE.                    16/10/2024:ÑÄíÄ êÖÉàëíêÄñàà
TIME.                      21-46-13:ÇêÖåü êÖÉàëíêÄñàà
DATO.                    16/10/2024:ÑÄíÄ éäéçóÄçàü êÖÉàëíêÄñàà
TIMO.                      22-29-03:ÇêÖåü éäéçóÄçàü êÖÉàëíêÄñàà
ZABOY.                          897:É´„°®≠† ß†°ÆÔ
SV.¨/Á                        -1094:ë‡•§≠ÔÔ ·™Æ‡Æ·‚Ï
~CURVE INFORMATION
DEPT.M                             :
TIME.                              :
MAPO.                              :
SPD .M/H                           :
IK.¨ë¨/¨                           :20.67; 100*(k2-k3)/(k4-k3)+S0; S0 = 0; 
IK_Om.Om*m                         :19.97; 1000/y2; S0 = 0; 
BK.é¨¨                             :18.68; U/S*0.237; 
A4*0M0*5N.O¨¨                      :11.25; if (k13-k17)>P then 1000*(k12-k16)/(k10-k16) else 100*(k13-k17)/(k29-k17); 
A8*0M1*0N.é¨¨                      :15.50; if (k15-k17)>P then 1000*(k14-k16)/(k10-k16) else 100*(k15-k17)/(k29-k17); 
A0*4M0*1N.é¨¨                      :13.95; if (k19-k17)>P then 200*(k18-k16)/(k10-k16) else 20*(k19-k17)/(k29-k17); 
A1*0M0*1N.é¨¨                      :14.55; if (k21-k17)>P then 1000*(k20-k16)/(k10-k16) else 100*(k21-k17)/(k29-k17); 
A2*0M0*5N.é¨¨                      :15.75; if (k23-k17)>P then 1000*(k22-k16)/(k10-k16) else 100*(k23-k17)/(k29-k17); 
N0*5M2*0A.é¨¨                      :11.25; if (k25-k17)>P then 1000*(k24-k16)/(k10-k16) else 100*(k25-k17)/(k29-k17); 
N11*0M0*5A.é¨¨                     :13.25; if (k27-k17)>P then 200*(k26-k16)/(k10-k16) else 20*(k27-k17)/(k29-k17); 
PS.                                :11.25; k_acp3 / 6; 
R.é¨¨                              :6.00; (k11-k16)/(k10-k16)*Kp; Kp = 0.68; 
TOK.Ä                              :0.00; 0.7-(k1-k30)/(k32/2); 
Nat.                               :0.00; k_tense; 
Speed.                             :0.00; k_speed; 
Nat.                               :0.00; k_tense; 
~PARAMETER INFORMATION
~Other information block
PLT.                      ä1Ä-723-å:ç†ß¢†≠®• Ø´†≠Ë•‚†
IPRB.                       ä1Ä-723:à¨Ô Ø‡®°Æ‡†
NPRB.                            15:çÆ¨•‡ Ø‡®°Æ‡†
R_TYPE.                      VULCAN:í®Ø ‡•£®·‚‡†‚Æ‡†
POW_VER.                       0x80:Ç•‡·®Ô Ø´†‚Î Ø®‚†≠®Ô
GAIN_1.                        1.49:ì·®´•≠®• ¸1
GAIN_2.                           0:ì·®´•≠®• ¸2
GAIN_3.                           0:ì·®´•≠®• ¸3
PRG_1+.                           5:èÆ‡Æ£ 1+
PRG_1-.                        2.35:èÆ‡Æ£ 1-
PRG_2+.                           5:èÆ‡Æ£ 2+
PRG_2-.                           5:èÆ‡Æ£ 2-
PRG_3+.                           5:èÆ‡Æ£ 3+
PRG_3-.                           5:èÆ‡Æ£ 3-
LAST_CMD.                          :èÆ·´•§≠ÔÔ ™Æ¨†≠§†
RELE.                      18640550:ëÆ·‚ÆÔ≠®• ‡•´•
DRV.    kis1.bit (07.11.2001  9:29):Ñ‡†©¢•‡
SkIn1M.                    99.30181:à¨Ø„´Ï·Æ¢ òä ≠† 1 ¨•‚‡
REG_SN.                        -999:¸ ‡•£®·‚‡†‚Æ‡†
~ASCII Log Data
# ...
539.800       220719.406       0.000   -1148.350     129.969       9.530     171.612      39.729     159.580       1.403       6.953      24.606      30.798      18.561     -32.700       0.083       0.398      80.146    1148.350      80.146
539.900       220719.125       0.000   -1118.561     129.655      10.618     156.097      39.465     158.952       1.424       7.025      25.022      30.550      18.600      20.333       0.083       0.396      81.808    1118.561      81.808
540.000       220718.781       0.000   -1123.292     128.716      11.701     152.323      39.026     158.070       1.441       7.130      25.465      30.235      18.632     -11.833       0.083       0.396      75.681    1123.292      75.681
540.100       220718.531       0.000   -1150.521     127.197      12.513     156.112      38.622     157.534       1.457       7.243      25.988      29.908      18.637     -89.452       0.083       0.396      74.866    1150.521      74.866
540.200       220718.188       0.000   -1117.565     124.895      13.212     152.446      38.229     157.255       1.470       7.325      26.456      29.671      18.619       9.972       0.083       0.398      77.734    1117.565      77.734
540.300       220717.875       0.000   -1112.436     120.293      13.865     155.472      37.878     156.499       1.485       7.413      26.904      29.437      18.611      50.278       0.083       0.397      74.368    1112.436      74.368
540.400       220717.531       0.000   -1118.162     113.598      14.059     164.959      37.639     155.822       1.508       7.513      27.358      29.222      18.592      57.458       0.083       0.399      78.497    1118.162      78.497
540.500       220717.219       0.000   -1110.904     104.937      13.657     163.784      37.456     155.354       1.529       7.642      27.842      29.035      18.540      18.643       0.083       0.398      79.983    1110.904      79.983
540.600       220716.875       0.000   -1156.107      94.184      13.025     163.867      37.251     155.055       1.544       7.744      28.463      28.778      18.487      54.119       0.083       0.399      76.893    1156.107      76.893
540.700       220716.594       0.000   -1146.847      85.460      12.307     172.713      37.310     154.304       1.572       7.857      28.997      28.544      18.426      43.233       0.083       0.397      74.899    1146.847      74.899
540.800       220716.313       0.000   -1135.321      79.916      11.395     181.563      38.143     153.828       1.592       7.954      29.417      28.300      18.353      23.690       0.083       0.398      74.703    1135.321      74.703
540.900       220715.906       0.000   -1153.638      75.690      10.674     182.924      39.579     153.254       1.615       8.069      29.861      28.051      18.248      63.933       0.083       0.399      77.597    1153.638      77.597
541.000       220715.625       0.000   -1151.205      72.123      10.170     188.553      41.051     152.568       1.639       8.192      30.305      27.787      18.129      32.417       0.083       0.400      79.983    1151.205      79.983
541.100       220715.313       0.000   -1163.625      71.130       9.696     192.186      42.364     151.991       1.651       8.269      30.814      27.567      17.983      39.600       0.083       0.400      79.983    1163.625      79.983
541.200       220715.016       0.000   -1131.799      73.222       9.206     193.230      43.671     151.692       1.678       8.349      31.355      27.349      17.893      57.722       0.084       0.400      77.050    1131.799      77.050
541.300       220714.734       0.000   -1093.832      76.778       8.719     190.040      45.405     150.963       1.707       8.508      31.791      27.046      17.831      44.857       0.084       0.400      74.866    1093.832      74.866
541.400       220714.406       0.000   -1097.074      81.255       8.112     191.993      47.029     150.252       1.726       8.592      32.230      26.757      17.793      59.500       0.083       0.399      77.402    1097.074      77.402
541.500       220714.125       0.000   -1111.772      87.762       7.602     197.660      48.603     149.564       1.747       8.729      32.706      26.493      17.770      71.333       0.083       0.400      74.947    1111.772      74.947
541.600       220713.703       0.000   -1065.893      93.682       7.374     185.293      50.073     148.934       1.775       8.873      33.191      26.191      17.762      64.300       0.082       0.399      74.638    1065.893      74.638
541.700       220713.406       0.000   -1072.616      98.326       7.486     176.512      51.930     148.361       1.805       8.966      33.760      25.852      17.776      83.146       0.082       0.400      74.781    1072.616      74.781
541.800       220713.125       0.000   -1044.863     103.138       7.767     193.967      53.719     148.317       1.833       9.121      34.262      25.444      17.787      33.000       0.083       0.399      75.550    1044.863      75.550
541.900       220712.813       1.000   -1127.192     108.630       8.134     197.782      55.247     148.653       1.857       9.254      34.658      25.057      17.799      51.917       0.082       0.400      73.285    1127.192      73.285
542.000       220712.156       0.000   -1113.816     114.697       8.386     164.199      56.761     148.256       1.873       9.373      35.005      24.639      17.808      58.528       0.082       0.398      76.150    1113.816      76.150
542.100       220711.875       0.000   -1124.156     123.274       9.711     134.895      57.988     147.739       1.885       9.480      35.416      24.219      17.824      34.667       0.082       0.399      73.530    1124.156      73.530
542.200       220711.594       0.000   -1140.140     131.538      10.403     137.508      59.579     147.345       1.893       9.561      35.842      23.702      17.836      30.111       0.082       0.400      73.530    1140.140      73.530
542.300       220711.313       0.000   -1194.994     135.607      10.970     137.783      61.175     147.109       1.894       9.663      36.232      23.216      17.852      38.556       0.082       0.398      74.996    1194.994      74.996
542.400       220710.875       0.000   -1208.760     133.577      11.602     137.078      62.800     146.915       1.907       9.786      36.628      22.714      17.860      25.881       0.083       0.399      73.569    1208.760      73.569
542.500       220710.625       0.000   -1169.681     128.745      12.194     149.284      64.401     146.359       1.922       9.946      37.190      22.247      17.873      58.533       0.083       0.399      74.038    1169.681      74.038
542.600       220710.344       0.000   -1138.815     122.943      12.529     159.368      65.991     146.182       1.928      10.027      37.734      21.844      17.893      46.417       0.082       0.398      76.593    1138.815      76.593
542.700       220710.031       0.000   -1129.775     119.247      12.620     175.073      67.560     145.985       1.955      10.155      38.316      21.438      17.912      41.400       0.083       0.399      78.875    1129.775      78.875
542.800       220709.719       0.000   -1146.969     102.981      12.367     180.426      69.359     145.833       1.971      10.284      38.931      20.974      17.917      64.071       0.083       0.401      78.256    1146.969      78.256
542.900       220709.406       0.000   -1126.865      96.130      11.986     171.066      71.410     145.939       1.984      10.352      39.483      20.502      17.927      85.633       0.083       0.398      74.547    1126.865      74.547
543.000       220709.125       0.000   -1120.392      91.161      11.625     144.776      73.180     145.971       2.002      10.480      40.159      19.994      17.930     105.167       0.083       0.398      73.497    1120.392      73.497
543.100       220708.813       0.000   -1113.909      86.192      11.281     123.183      74.847     145.846       2.011      10.522      40.770      19.527      17.925      92.722       0.083       0.398      73.497    1113.909      73.497
