~VERSION INFORMATION
VERS.                           2.0:CWLS LOG ASCII STANDARD -VERSION 2.0
WRAP.                            NO:ONE LINE PER DEPTH STEP
~WELL INFORMATION
STRT.M                       128.40:ëíÄêí
STOP.M                       901.90:ëíéè
STEP.M                         0.10:òÄÉ
NULL.                       -999.25:NULL  VALUES
OPER.              å†™†‡•¢·™®© Ö.Ä.:éèÖêÄíéê
WELL.                           169:ëäÇÄÜàçÄ
KUST.                              :äìëí
FLD.                               :èãéôÄÑú
MEST.                   Ä™·Ó‚®≠·™Æ•:åÖëíéêéÜÑÖçàÖ
COMM.                              :äéååÖçíÄêàâ
DIRECTION.                   èéÑöå:çÄèêÄÇãÖçàÖ áÄèàëà
DATE.                    16/10/2024:ÑÄíÄ êÖÉàëíêÄñàà
TIME.                      21-46-13:ÇêÖåü êÖÉàëíêÄñàà
DATO.                    16/10/2024:ÑÄíÄ éäéçóÄçàü êÖÉàëíêÄñàà
TIMO.                      22-29-03:ÇêÖåü éäéçóÄçàü êÖÉàëíêÄñàà
ZABOY.                          897:É´„°®≠† ß†°ÆÔ
SV.¨/Á                        -1094:ë‡•§≠ÔÔ ·™Æ‡Æ·‚Ï
~CURVE INFORMATION
DEPT.M                             :
TIME.                              :
MAPO.                              :
SPD .M/H                           :
IK.¨ë¨/¨                           :20.67; 100*(k2-k3)/(k4-k3)+S0; S0 = 0; 
IK_Om.Om*m                         :19.97; 1000/y2; S0 = 0; 
BK.é¨¨                             :18.68; U/S*0.237; 
A4*0M0*5N.O¨¨                      :11.25; if (k13-k17)>P then 1000*(k12-k16)/(k10-k16) else 100*(k13-k17)/(k29-k17); 
A8*0M1*0N.é¨¨                      :15.50; if (k15-k17)>P then 1000*(k14-k16)/(k10-k16) else 100*(k15-k17)/(k29-k17); 
A0*4M0*1N.é¨¨                      :13.95; if (k19-k17)>P then 200*(k18-k16)/(k10-k16) else 20*(k19-k17)/(k29-k17); 
A1*0M0*1N.é¨¨                      :14.55; if (k21-k17)>P then 1000*(k20-k16)/(k10-k16) else 100*(k21-k17)/(k29-k17); 
A2*0M0*5N.é¨¨                      :15.75; if (k23-k17)>P then 1000*(k22-k16)/(k10-k16) else 100*(k23-k17)/(k29-k17); 
N0*5M2*0A.é¨¨                      :11.25; if (k25-k17)>P then 1000*(k24-k16)/(k10-k16) else 100*(k25-k17)/(k29-k17); 
N11*0M0*5A.é¨¨                     :13.25; if (k27-k17)>P then 200*(k26-k16)/(k10-k16) else 20*(k27-k17)/(k29-k17); 
PS.                                :11.25; k_acp3 / 6; 
R.é¨¨                              :6.00; (k11-k16)/(k10-k16)*Kp; Kp = 0.68; 
TOK.Ä                              :0.00; 0.7-(k1-k30)/(k32/2); 
Nat.                               :0.00; k_tense; 
Speed.                             :0.00; k_speed; 
Nat.                               :0.00; k_tense; 
~PARAMETER INFORMATION
~Other information block
PLT.                      ä1Ä-723-å:ç†ß¢†≠®• Ø´†≠Ë•‚†
IPRB.                       ä1Ä-723:à¨Ô Ø‡®°Æ‡†
NPRB.                            15:çÆ¨•‡ Ø‡®°Æ‡†
R_TYPE.                      VULCAN:í®Ø ‡•£®·‚‡†‚Æ‡†
POW_VER.                       0x80:Ç•‡·®Ô Ø´†‚Î Ø®‚†≠®Ô
GAIN_1.                        1.49:ì·®´•≠®• ¸1
GAIN_2.                           0:ì·®´•≠®• ¸2
GAIN_3.                           0:ì·®´•≠®• ¸3
PRG_1+.                           5:èÆ‡Æ£ 1+
PRG_1-.                        2.35:èÆ‡Æ£ 1-
PRG_2+.                           5:èÆ‡Æ£ 2+
PRG_2-.                           5:èÆ‡Æ£ 2-
PRG_3+.                           5:èÆ‡Æ£ 3+
PRG_3-.                           5:èÆ‡Æ£ 3-
LAST_CMD.                          :èÆ·´•§≠ÔÔ ™Æ¨†≠§†
RELE.                      18640550:ëÆ·‚ÆÔ≠®• ‡•´•
DRV.    kis1.bit (07.11.2001  9:29):Ñ‡†©¢•‡
SkIn1M.                    99.30181:à¨Ø„´Ï·Æ¢ òä ≠† 1 ¨•‚‡
REG_SN.                        -999:¸ ‡•£®·‚‡†‚Æ‡†
~ASCII Log Data
# ...
740.400       215630.875       0.000   -1146.464     173.408       5.358      33.279      63.816     181.255       1.513       6.643      25.525      30.797      28.158      85.700       0.091       0.394      80.048    1146.464      80.048
740.500       215630.594       0.000   -1128.265     174.791       5.413      31.787      61.906     175.388       1.486       6.428      24.677      31.716      28.211      57.333       0.091       0.394      85.515    1128.265      85.515
740.600       215630.203       0.000   -1129.153     176.722       5.602      30.390      59.454     170.973       1.416       6.112      23.716      32.711      28.294      76.267       0.090       0.394      82.591    1129.153      82.591
740.700       215629.844       0.000   -1100.039     178.427       5.958      29.956      56.659     166.384       1.361       5.936      22.588      33.609      28.393      69.643       0.089       0.394      79.983    1100.039      79.983
740.800       215629.594       0.000   -1096.901     179.889       6.205      34.244      54.459     160.566       1.280       5.620      21.560      34.426      28.489      48.333       0.089       0.393      80.179    1096.901      80.179
740.900       215629.297       0.000   -1076.510     182.463       6.178      38.734      52.674     153.805       1.276       5.569      21.042      35.267      28.625      87.867       0.089       0.394      85.459    1076.510      85.459
741.000       215628.922       0.000   -1116.225     185.960       6.015      40.552      51.233     148.179       1.272       5.508      20.591      36.494      28.800      67.021       0.091       0.394      85.719    1116.225      85.719
741.100       215628.594       0.000   -1095.775     186.639       5.892      41.171      49.939     143.629       1.278       5.491      20.092      37.396      28.953      77.250       0.091       0.394      82.069    1095.775      82.069
741.200       215628.266       0.000   -1122.154     184.752       5.804      39.121      48.615     139.094       1.274       5.499      19.440      38.042      29.152      72.833       0.091       0.394      83.229    1122.154      83.229
741.300       215627.984       0.000   -1102.432     178.497       5.707      36.377      47.246     133.588       1.215       5.169      18.848      38.748      29.362      55.278       0.091       0.394      81.156    1102.432      81.156
741.400       215627.609       0.000   -1112.695     167.850       5.364      38.305      45.369     128.426       1.154       4.916      18.161      39.262      29.516      87.604       0.090       0.395      79.732    1112.695      79.732
741.500       215627.266       0.000   -1122.554     161.169       4.928      43.901      42.937     124.859       1.122       4.837      17.387      39.149      29.648      59.133       0.089       0.394      77.871    1122.554      77.871
741.600       215626.984       0.000   -1178.085     161.865       4.659      47.677      40.913     121.497       1.081       4.576      16.441      38.901      29.778      52.667       0.089       0.394      81.091    1178.085      81.091
741.700       215626.672       0.000   -1164.898     166.249       4.568      49.194      39.128     117.552       1.011       4.280      15.691      38.603      29.926      90.700       0.090       0.394      81.156    1164.898      81.156
741.800       215626.391       1.000   -1150.416     169.729       4.701      49.168      37.892     113.896       0.958       3.989      15.267      38.595      30.091      72.694       0.090       0.394      81.603    1150.416      81.603
741.900       215626.016       1.000   -1125.392     172.286       4.990      52.440      36.743     110.895       0.939       3.998      15.045      39.085      30.284      75.048       0.088       0.396      82.868    1125.392      82.868
742.000       215625.797       1.000   -1083.021     175.209       5.167      54.027      36.123     108.269       1.009       4.212      14.903      40.178      30.463      77.528       0.087       0.394      81.293    1083.021      81.293
742.100       215625.297       0.000   -1123.075     186.421       5.762      49.814      35.738     106.226       1.058       4.361      14.878      41.263      30.692      73.861       0.087       0.394      83.581    1123.075      83.581
742.200       215625.016       0.000   -1116.739     202.923       6.019      45.635      35.612     105.221       1.024       4.221      14.780      42.737      30.921      95.067       0.085       0.395      80.211    1116.739      80.211
742.300       215624.703       0.000   -1145.724     214.621       6.470      43.872      34.917     105.691       0.989       4.070      14.591      44.313      31.130      85.063       0.085       0.396      82.354    1145.724      82.354
742.400       215624.297       0.000   -1111.250     218.922       7.233      41.212      33.953     106.654       0.959       3.974      14.285      45.965      31.385      69.533       0.086       0.396      86.124    1111.250      86.124
742.500       215623.984       0.000   -1124.116     212.709       8.010      39.862      33.374     107.477       0.927       3.877      14.156      47.754      31.700      83.083       0.086       0.395      86.762    1124.116      86.762
742.600       215623.703       0.000   -1103.062     200.418       8.608      40.961      33.420     108.124       0.901       3.838      14.322      50.805      32.102      67.806       0.086       0.394      84.057    1103.062      84.057
742.700       215623.328       0.000   -1077.171     193.528       9.191      49.126      34.018     109.375       0.887       3.893      14.664      54.838      32.542      83.083       0.087       0.394      86.192    1077.171      86.192
742.800       215623.109       0.000   -1108.495     173.539       9.623      64.974      34.849     110.830       0.913       4.071      15.138      58.494      32.973      56.600       0.087       0.396      81.303    1108.495      81.303
742.900       215622.703       0.000   -1148.616     166.127       9.912      73.339      35.628     112.792       0.935       4.213      15.626      61.480      33.399      59.028       0.087       0.394      79.853    1148.616      79.853
743.000       215622.406       0.000   -1131.220     154.553      10.197      74.579      36.440     114.730       0.934       4.252      15.988      64.517      33.945      78.694       0.087       0.394      79.827    1131.220      79.827
743.100       215622.125       0.000   -1163.402     138.262      10.396      83.646      36.998     116.961       0.903       4.215      16.217      66.791      34.466      59.867       0.088       0.394      80.123    1163.402      80.123
743.200       215621.734       0.000   -1109.367     124.843      10.445     126.739      37.313     119.060       0.871       4.233      16.397      68.194      34.918      77.357       0.088       0.395      84.168    1109.367      84.168
743.300       215621.484       0.000   -1103.276     116.171      10.187     223.192      37.415     120.288       0.867       4.273      16.539      68.756      35.375      52.333       0.088       0.395      81.743    1103.276      81.743
743.400       215621.094       0.000   -1093.762     108.803       9.846     412.579      37.969     121.328       0.868       4.275      16.751      69.409      35.888      85.100       0.089       0.394      85.394    1093.762      85.394
743.500       215620.797       0.000   -1121.719     103.914       9.557     682.222      38.122     122.341       0.882       4.340      16.976      69.110      36.394      70.056       0.088       0.394      81.156    1121.719      81.156
743.600       215620.484       0.000   -1107.249     100.887       9.374    1109.989      38.326     123.245       0.897       4.394      17.162      68.765      36.830      95.738       0.088       0.395      86.241    1107.249      86.241
743.700       215620.156       0.000   -1124.739      98.069       9.277    1326.262      38.659     123.982       0.919       4.458      17.381      68.373      37.252      58.611       0.088       0.396      86.241    1124.739      86.241
