~VERSION INFORMATION
VERS.                           2.0:CWLS LOG ASCII STANDARD -VERSION 2.0
WRAP.                            NO:ONE LINE PER DEPTH STEP
~WELL INFORMATION
STRT.M                       128.40:ëíÄêí
STOP.M                       901.90:ëíéè
STEP.M                         0.10:òÄÉ
NULL.                       -999.25:NULL  VALUES
OPER.              å†™†‡•¢·™®© Ö.Ä.:éèÖêÄíéê
WELL.                           169:ëäÇÄÜàçÄ
KUST.                              :äìëí
FLD.                               :èãéôÄÑú
MEST.                   Ä™·Ó‚®≠·™Æ•:åÖëíéêéÜÑÖçàÖ
COMM.                              :äéååÖçíÄêàâ
DIRECTION.                   èéÑöå:çÄèêÄÇãÖçàÖ áÄèàëà
DATE.                    16/10/2024:ÑÄíÄ êÖÉàëíêÄñàà
TIME.                      21-46-13:ÇêÖåü êÖÉàëíêÄñàà
DATO.                    16/10/2024:ÑÄíÄ éäéçóÄçàü êÖÉàëíêÄñàà
TIMO.                      22-29-03:ÇêÖåü éäéçóÄçàü êÖÉàëíêÄñàà
ZABOY.                          897:É´„°®≠† ß†°ÆÔ
SV.¨/Á                        -1094:ë‡•§≠ÔÔ ·™Æ‡Æ·‚Ï
~CURVE INFORMATION
DEPT.M                             :
TIME.                              :
MAPO.                              :
SPD .M/H                           :
IK.¨ë¨/¨                           :20.67; 100*(k2-k3)/(k4-k3)+S0; S0 = 0; 
IK_Om.Om*m                         :19.97; 1000/y2; S0 = 0; 
BK.é¨¨                             :18.68; U/S*0.237; 
A4*0M0*5N.O¨¨                      :11.25; if (k13-k17)>P then 1000*(k12-k16)/(k10-k16) else 100*(k13-k17)/(k29-k17); 
A8*0M1*0N.é¨¨                      :15.50; if (k15-k17)>P then 1000*(k14-k16)/(k10-k16) else 100*(k15-k17)/(k29-k17); 
A0*4M0*1N.é¨¨                      :13.95; if (k19-k17)>P then 200*(k18-k16)/(k10-k16) else 20*(k19-k17)/(k29-k17); 
A1*0M0*1N.é¨¨                      :14.55; if (k21-k17)>P then 1000*(k20-k16)/(k10-k16) else 100*(k21-k17)/(k29-k17); 
A2*0M0*5N.é¨¨                      :15.75; if (k23-k17)>P then 1000*(k22-k16)/(k10-k16) else 100*(k23-k17)/(k29-k17); 
N0*5M2*0A.é¨¨                      :11.25; if (k25-k17)>P then 1000*(k24-k16)/(k10-k16) else 100*(k25-k17)/(k29-k17); 
N11*0M0*5A.é¨¨                     :13.25; if (k27-k17)>P then 200*(k26-k16)/(k10-k16) else 20*(k27-k17)/(k29-k17); 
PS.                                :11.25; k_acp3 / 6; 
R.é¨¨                              :6.00; (k11-k16)/(k10-k16)*Kp; Kp = 0.68; 
TOK.Ä                              :0.00; 0.7-(k1-k30)/(k32/2); 
Nat.                               :0.00; k_tense; 
Speed.                             :0.00; k_speed; 
Nat.                               :0.00; k_tense; 
~PARAMETER INFORMATION
~Other information block
PLT.                      ä1Ä-723-å:ç†ß¢†≠®• Ø´†≠Ë•‚†
IPRB.                       ä1Ä-723:à¨Ô Ø‡®°Æ‡†
NPRB.                            15:çÆ¨•‡ Ø‡®°Æ‡†
R_TYPE.                      VULCAN:í®Ø ‡•£®·‚‡†‚Æ‡†
POW_VER.                       0x80:Ç•‡·®Ô Ø´†‚Î Ø®‚†≠®Ô
GAIN_1.                        1.49:ì·®´•≠®• ¸1
GAIN_2.                           0:ì·®´•≠®• ¸2
GAIN_3.                           0:ì·®´•≠®• ¸3
PRG_1+.                           5:èÆ‡Æ£ 1+
PRG_1-.                        2.35:èÆ‡Æ£ 1-
PRG_2+.                           5:èÆ‡Æ£ 2+
PRG_2-.                           5:èÆ‡Æ£ 2-
PRG_3+.                           5:èÆ‡Æ£ 3+
PRG_3-.                           5:èÆ‡Æ£ 3-
LAST_CMD.                          :èÆ·´•§≠ÔÔ ™Æ¨†≠§†
RELE.                      18640550:ëÆ·‚ÆÔ≠®• ‡•´•
DRV.    kis1.bit (07.11.2001  9:29):Ñ‡†©¢•‡
SkIn1M.                    99.30181:à¨Ø„´Ï·Æ¢ òä ≠† 1 ¨•‚‡
REG_SN.                        -999:¸ ‡•£®·‚‡†‚Æ‡†
~ASCII Log Data
# ...
288.200       222036.516       0.000   -1113.173     201.987       4.125       9.543      28.453      29.658       1.712       7.063      18.223       9.243       7.019     113.833       0.094       0.401      23.584    1113.173      23.584
288.300       222036.203       0.000   -1116.373     230.091       4.296       9.538      29.847      30.272       1.721       7.319      19.245       9.602       6.959     140.367       0.094       0.400      14.360    1116.373      14.360
288.400       222035.875       0.000   -1161.043     247.594       4.492      10.807      30.808      31.130       1.827       7.707      19.862       9.860       6.887     130.067       0.094       0.399      21.746    1161.043      21.746
288.500       222035.594       0.000   -1153.781     257.955       4.644       9.296      31.141      31.679       1.779       7.578      20.077       9.877       6.837     124.417       0.094       0.399      25.390    1153.781      25.390
288.600       222035.266       0.000   -1156.584     258.482       4.669       9.304      31.042      31.594       1.819       7.820      20.071       9.675       6.773     117.500       0.094       0.401      26.131    1156.584      26.131
288.700       222034.844       0.000   -1159.500     252.408       4.462       7.896      30.295      31.285       1.725       7.562      19.690       9.535       6.678     120.278       0.094       0.400      26.254    1159.500      26.254
288.800       222034.625       0.000   -1153.613     248.220       4.254       6.165      29.043      30.797       1.630       7.077      18.980       9.409       6.607     113.972       0.095       0.399      24.696    1153.613      24.696
288.900       222034.281       0.000   -1170.427     242.416       4.219       5.215      27.572      30.090       1.598       6.850      18.089       9.336       6.573      73.600       0.094       0.400      25.305    1170.427      25.305
289.000       222033.984       0.000   -1178.141     232.762       4.221       4.587      26.057      29.285       1.459       6.165      17.282       9.409       6.517      36.083       0.094       0.400      27.965    1178.141      27.965
289.100       222033.703       0.000   -1191.615     222.594       4.198       4.189      24.833      28.343       1.385       5.733      16.577       9.822       6.524      77.028       0.095       0.400      24.771    1191.615      24.771
289.200       222033.406       0.000   -1186.352     215.332       4.200       3.963      23.755      27.566       1.309       5.358      16.023      10.385       6.541     104.500       0.094       0.400      22.750    1186.352      22.750
289.300       222033.125       0.000   -1189.849     214.184       4.179       4.242      22.942      27.026       1.296       5.403      15.679      10.961       6.515     107.250       0.094       0.400      24.836    1189.849      24.836
289.400       222032.813       0.000   -1178.545     224.111       4.232       5.133      22.503      26.543       1.349       5.527      15.618      11.581       6.550      80.500       0.094       0.400      22.815    1178.545      22.815
289.500       222032.500       0.000   -1163.328     235.060       4.377       5.961      22.513      26.194       1.296       5.302      15.655      12.047       6.581      82.972       0.095       0.399      25.097    1163.328      25.097
289.600       222032.156       0.000   -1149.182     236.996       4.422       6.781      22.506      25.882       1.307       5.334      15.575      12.193       6.573     130.767       0.094       0.401      14.119    1149.182      14.119
289.700       222031.906       0.000   -1134.803     236.925       4.440       8.066      22.402      25.654       1.340       5.455      15.511      12.145       6.577     123.000       0.093       0.400      24.966    1134.803      24.966
289.800       222031.594       0.000   -1137.768     238.200       4.388       8.401      22.343      25.242       1.325       5.286      15.454      11.975       6.573     116.611       0.092       0.401      25.618    1137.768      25.618
289.900       222031.219       0.000   -1146.410     238.115       4.332       9.099      22.029      24.701       1.401       5.416      15.213      11.611       6.510     123.639       0.092       0.399      27.704    1146.410      27.704
290.000       222030.906       0.000   -1123.621     239.288       4.376       8.949      21.540      24.229       1.373       5.184      14.864      11.234       6.486     107.300       0.092       0.400      24.445    1123.621      24.445
290.100       222030.563       0.000   -1144.657     236.300       4.448       7.451      21.019      23.717       1.314       4.914      14.422      10.968       6.421     110.452       0.091       0.400      24.875    1144.657      24.875
290.200       222030.313       0.000   -1135.368     228.467       4.502       6.849      20.252      23.163       1.317       4.866      13.775      10.678       6.420      79.405       0.092       0.399      25.814    1135.368      25.814
290.300       222030.000       0.000   -1156.845     226.153       4.511       6.447      19.666      22.593       1.327       4.834      13.325      10.604       6.449      48.333       0.092       0.400      27.378    1156.845      27.378
290.400       222029.625       0.000   -1150.013     225.210       4.425       5.998      19.590      21.901       1.314       4.803      13.121      10.771       6.475      91.500       0.093       0.397      30.898    1150.013      30.898
290.500       222029.281       0.000   -1155.403     227.913       4.268       5.925      19.417      21.288       1.315       4.858      12.950      10.863       6.506      77.333       0.093       0.399      25.194    1155.403      25.194
290.600       222028.969       0.000   -1160.430     230.838       4.044       6.485      19.277      20.771       1.365       5.052      12.773      10.909       6.496      52.533       0.093       0.400      24.014    1160.430      24.014
290.700       222028.688       0.000   -1194.996     228.534       3.806       6.865      18.995      20.368       1.348       5.049      12.508      10.772       6.466     114.778       0.093       0.401      24.901    1194.996      24.901
290.800       222028.406       0.000   -1157.711     224.830       3.635       5.740      18.522      20.000       1.340       4.996      12.129      10.542       6.451     136.905       0.094       0.400      27.691    1157.711      27.691
290.900       222028.094       0.000   -1131.533     222.106       3.560       5.109      17.870      19.697       1.239       4.635      11.669      10.307       6.413     180.333       0.094       0.401      27.704    1131.533      27.704
291.000       222027.813       0.000   -1131.704     221.683       3.575       5.449      17.307      19.430       1.135       4.301      11.306      10.173       6.440     188.917       0.093       0.400      32.397    1131.704      32.397
291.100       222027.469       0.000   -1132.934     225.969       3.674       6.058      16.874      19.148       1.126       4.317      11.014      10.128       6.447     124.944       0.092       0.399      27.834    1132.934      27.834
291.200       222027.156       0.000   -1144.517     234.311       3.823       6.269      16.759      18.802       1.212       4.599      11.007      10.320       6.483     134.367       0.093       0.400      24.417    1144.517      24.417
291.300       222026.813       0.000   -1140.665     247.250       3.985       5.798      17.107      18.520       1.267       4.785      11.232      10.709       6.534     134.750       0.093       0.399      23.193    1140.665      23.193
291.400       222026.516       0.000   -1126.657     262.736       4.196       5.959      17.517      18.447       1.287       4.802      11.442      11.029       6.583     139.067       0.094       0.400      28.691    1126.657      28.691
291.500       222026.156       0.000   -1163.168     275.105       4.314       6.681      17.622      18.423       1.293       4.938      11.483      11.135       6.602     146.500       0.093       0.398      29.529    1163.168      29.529
