~VERSION INFORMATION
VERS.                           2.0:CWLS LOG ASCII STANDARD -VERSION 2.0
WRAP.                            NO:ONE LINE PER DEPTH STEP
~WELL INFORMATION
STRT.M                       128.40:ëíÄêí
STOP.M                       901.90:ëíéè
STEP.M                         0.10:òÄÉ
NULL.                       -999.25:NULL  VALUES
OPER.              å†™†‡•¢·™®© Ö.Ä.:éèÖêÄíéê
WELL.                           169:ëäÇÄÜàçÄ
KUST.                              :äìëí
FLD.                               :èãéôÄÑú
MEST.                   Ä™·Ó‚®≠·™Æ•:åÖëíéêéÜÑÖçàÖ
COMM.                              :äéååÖçíÄêàâ
DIRECTION.                   èéÑöå:çÄèêÄÇãÖçàÖ áÄèàëà
DATE.                    16/10/2024:ÑÄíÄ êÖÉàëíêÄñàà
TIME.                      21-46-13:ÇêÖåü êÖÉàëíêÄñàà
DATO.                    16/10/2024:ÑÄíÄ éäéçóÄçàü êÖÉàëíêÄñàà
TIMO.                      22-29-03:ÇêÖåü éäéçóÄçàü êÖÉàëíêÄñàà
ZABOY.                          897:É´„°®≠† ß†°ÆÔ
SV.¨/Á                        -1094:ë‡•§≠ÔÔ ·™Æ‡Æ·‚Ï
~CURVE INFORMATION
DEPT.M                             :
TIME.                              :
MAPO.                              :
SPD .M/H                           :
IK.¨ë¨/¨                           :20.67; 100*(k2-k3)/(k4-k3)+S0; S0 = 0; 
IK_Om.Om*m                         :19.97; 1000/y2; S0 = 0; 
BK.é¨¨                             :18.68; U/S*0.237; 
A4*0M0*5N.O¨¨                      :11.25; if (k13-k17)>P then 1000*(k12-k16)/(k10-k16) else 100*(k13-k17)/(k29-k17); 
A8*0M1*0N.é¨¨                      :15.50; if (k15-k17)>P then 1000*(k14-k16)/(k10-k16) else 100*(k15-k17)/(k29-k17); 
A0*4M0*1N.é¨¨                      :13.95; if (k19-k17)>P then 200*(k18-k16)/(k10-k16) else 20*(k19-k17)/(k29-k17); 
A1*0M0*1N.é¨¨                      :14.55; if (k21-k17)>P then 1000*(k20-k16)/(k10-k16) else 100*(k21-k17)/(k29-k17); 
A2*0M0*5N.é¨¨                      :15.75; if (k23-k17)>P then 1000*(k22-k16)/(k10-k16) else 100*(k23-k17)/(k29-k17); 
N0*5M2*0A.é¨¨                      :11.25; if (k25-k17)>P then 1000*(k24-k16)/(k10-k16) else 100*(k25-k17)/(k29-k17); 
N11*0M0*5A.é¨¨                     :13.25; if (k27-k17)>P then 200*(k26-k16)/(k10-k16) else 20*(k27-k17)/(k29-k17); 
PS.                                :11.25; k_acp3 / 6; 
R.é¨¨                              :6.00; (k11-k16)/(k10-k16)*Kp; Kp = 0.68; 
TOK.Ä                              :0.00; 0.7-(k1-k30)/(k32/2); 
Nat.                               :0.00; k_tense; 
Speed.                             :0.00; k_speed; 
Nat.                               :0.00; k_tense; 
~PARAMETER INFORMATION
~Other information block
PLT.                      ä1Ä-723-å:ç†ß¢†≠®• Ø´†≠Ë•‚†
IPRB.                       ä1Ä-723:à¨Ô Ø‡®°Æ‡†
NPRB.                            15:çÆ¨•‡ Ø‡®°Æ‡†
R_TYPE.                      VULCAN:í®Ø ‡•£®·‚‡†‚Æ‡†
POW_VER.                       0x80:Ç•‡·®Ô Ø´†‚Î Ø®‚†≠®Ô
GAIN_1.                        1.49:ì·®´•≠®• ¸1
GAIN_2.                           0:ì·®´•≠®• ¸2
GAIN_3.                           0:ì·®´•≠®• ¸3
PRG_1+.                           5:èÆ‡Æ£ 1+
PRG_1-.                        2.35:èÆ‡Æ£ 1-
PRG_2+.                           5:èÆ‡Æ£ 2+
PRG_2-.                           5:èÆ‡Æ£ 2-
PRG_3+.                           5:èÆ‡Æ£ 3+
PRG_3-.                           5:èÆ‡Æ£ 3-
LAST_CMD.                          :èÆ·´•§≠ÔÔ ™Æ¨†≠§†
RELE.                      18640550:ëÆ·‚ÆÔ≠®• ‡•´•
DRV.    kis1.bit (07.11.2001  9:29):Ñ‡†©¢•‡
SkIn1M.                    99.30181:à¨Ø„´Ï·Æ¢ òä ≠† 1 ¨•‚‡
REG_SN.                        -999:¸ ‡•£®·‚‡†‚Æ‡†
~ASCII Log Data
# ...
138.600       222823.844       0.000   -1187.080    -999.250    -999.250    -999.250    -999.250    -999.250    -999.250    -999.250    -999.250    -999.250    -999.250    -999.250       0.078       0.400       4.335    1187.080       4.335
138.700       222823.516       0.000   -1160.631    -999.250    -999.250    -999.250    -999.250    -999.250    -999.250    -999.250    -999.250    -999.250    -999.250    -999.250       0.079       0.400       3.481    1160.631       3.481
138.800       222823.234       0.000   -1153.898    -999.250    -999.250    -999.250    -999.250    -999.250    -999.250    -999.250    -999.250    -999.250    -999.250    -999.250       0.077       0.401       3.324    1153.898       3.324
138.900       222822.953       0.000   -1135.463    -999.250    -999.250    -999.250    -999.250    -999.250    -999.250    -999.250    -999.250    -999.250    -999.250    -999.250       0.078       0.403       3.324    1135.463       3.324
139.000       222822.625       0.000   -1134.066    -999.250    -999.250    -999.250    -999.250    -999.250    -999.250    -999.250    -999.250    -999.250    -999.250    -999.250       0.080       0.400       3.324    1134.066       3.324
139.100       222822.297       0.000   -1158.167    -999.250    -999.250    -999.250    -999.250    -999.250    -999.250    -999.250    -999.250    -999.250    -999.250    -999.250       0.078       0.402       3.324    1158.167       3.324
139.200       222822.016       0.000   -1168.439    -999.250    -999.250    -999.250    -999.250    -999.250    -999.250    -999.250    -999.250    -999.250    -999.250    -999.250       0.076       0.401       3.324    1168.439       3.324
139.300       222821.703       0.000   -1167.160    -999.250    -999.250    -999.250    -999.250    -999.250    -999.250    -999.250    -999.250    -999.250    -999.250    -999.250       0.078       0.402       3.364    1167.160       3.364
139.400       222821.422       0.000   -1176.028    -999.250    -999.250    -999.250    -999.250    -999.250    -999.250    -999.250    -999.250    -999.250    -999.250    -999.250       0.077       0.401       3.324    1176.028       3.324
139.500       222821.141       0.000   -1164.498    -999.250    -999.250    -999.250    -999.250    -999.250    -999.250    -999.250    -999.250    -999.250    -999.250    -999.250       0.079       0.402       3.364    1164.498       3.364
139.600       222820.828       0.000   -1162.336    -999.250    -999.250    -999.250    -999.250    -999.250    -999.250    -999.250    -999.250    -999.250    -999.250    -999.250       0.077       0.400       3.422    1162.336       3.422
139.700       222820.391       0.000   -1226.854    -999.250    -999.250    -999.250      -0.081    -999.250    -999.250    -999.250    -999.250      -0.016    -999.250     187.417       0.079       0.402       3.324    1226.854       3.324
139.800       222820.109       0.000   -1167.301    -999.250    -999.250    -999.250      -0.073    -999.250    -999.250    -999.250    -999.250      -0.008    -999.250     190.556       0.078       0.402       3.324    1167.301       3.324
139.900       222819.828       0.000   -1208.089    -999.250    -999.250    -999.250      -0.081    -999.250    -999.250    -999.250    -999.250      -0.016    -999.250     158.300       0.077       0.400       3.324    1208.089       3.324
140.000       222819.547       0.000   -1201.302    -999.250    -999.250    -999.250      -0.077    -999.250    -999.250    -999.250    -999.250      -0.013    -999.250     193.528       0.077       0.400       3.324    1201.302       3.324
140.100       222819.234       0.000   -1169.054    -999.250    -999.250    -999.250      -0.081    -999.250    -999.250    -999.250    -999.250      -0.016    -999.250     189.722       0.078       0.400       3.259    1169.054       3.259
140.200       222818.953       0.000   -1208.623    -999.250    -999.250    -999.250      -0.073    -999.250    -999.250    -999.250    -999.250      -0.008    -999.250     138.467       0.079       0.403       3.324    1208.623       3.324
140.300       222818.578       0.000   -1197.600    -999.250    -999.250    -999.250      -0.081    -999.250    -999.250    -999.250    -999.250      -0.024    -999.250     155.611       0.079       0.400       3.403    1197.600       3.403
140.400       222818.328       0.000   -1159.345    -999.250    -999.250    -999.250      -0.073    -999.250    -999.250    -999.250    -999.250      -0.008    -999.250     204.533       0.079       0.402       3.324    1159.345       3.324
140.500       222818.016       0.000   -1176.482    -999.250    -999.250    -999.250      -0.081    -999.250    -999.250    -999.250    -999.250      -0.016    -999.250     187.278       0.078       0.403       3.324    1176.482       3.324
140.600       222817.734       0.000   -1160.373    -999.250    -999.250    -999.250      -0.086    -999.250    -999.250    -999.250    -999.250      -0.016    -999.250     166.479       0.079       0.401       3.324    1160.373       3.324
140.700       222817.422       0.000   -1171.685    -999.250    -999.250    -999.250      -0.075    -999.250    -999.250    -999.250    -999.250      -0.011    -999.250     104.042       0.078       0.400       3.324    1171.685       3.324
140.800       222817.141       0.000   -1192.360    -999.250    -999.250    -999.250      -0.071    -999.250    -999.250    -999.250    -999.250      -0.006    -999.250     105.762       0.077       0.401       3.324    1192.360       3.324
140.900       222816.766       0.000   -1163.035    -999.250    -999.250    -999.250      -0.073    -999.250    -999.250    -999.250    -999.250      -0.016    -999.250     136.033       0.076       0.402       3.324    1163.035       3.324
141.000       222816.516       0.000   -1164.725    -999.250    -999.250    -999.250      -0.081    -999.250    -999.250    -999.250    -999.250      -0.024    -999.250     147.944       0.075       0.402       3.227    1164.725       3.227
141.100       222816.203       0.000   -1133.539    -999.250    -999.250    -999.250      -0.084    -999.250    -999.250    -999.250    -999.250      -0.019    -999.250     179.722       0.074       0.402       3.285    1133.539       3.285
141.200       222815.938       0.000   -1213.257    -999.250    -999.250    -999.250      -0.089    -999.250    -999.250    -999.250    -999.250      -0.024    -999.250     194.833       0.076       0.401       3.227    1213.257       3.227
141.300       222815.609       0.000   -1195.926    -999.250    -999.250    -999.250      -0.081    -999.250    -999.250    -999.250    -999.250      -0.016    -999.250     182.433       0.077       0.401       3.129    1195.926       3.129
141.400       222815.328       0.000   -1222.694    -999.250    -999.250    -999.250      -0.097    -999.250    -999.250    -999.250    -999.250      -0.032    -999.250     198.567       0.077       0.401       3.251    1222.694       3.251
141.500       222814.938       0.000   -1156.841    -999.250    -999.250    -999.250      -0.081    -999.250    -999.250    -999.250    -999.250      -0.016    -999.250     176.833       0.078       0.400       3.324    1156.841       3.324
141.600       222814.734       0.000   -1170.827    -999.250    -999.250    -999.250      -0.089    -999.250    -999.250    -999.250    -999.250      -0.024    -999.250     170.250       0.077       0.402       3.324    1170.827       3.324
141.700       222814.406       0.000   -1184.014    -999.250    -999.250    -999.250      -0.065    -999.250    -999.250    -999.250    -999.250      -0.008       0.023     159.267       0.076       0.401       3.324    1184.014       3.324
141.800       222814.125       0.000   -1214.846    -999.250    -999.250    -999.250      -0.090    -999.250    -999.250    -999.250    -999.250      -0.019       0.024     196.222       0.077       0.401       3.324    1214.846       3.324
141.900       222813.734       1.000   -1206.365    -999.250    -999.250    -999.250      -0.065    -999.250    -999.250    -999.250    -999.250      -0.006       0.023     147.500       0.076       0.402       3.716    1206.365       3.716
