~VERSION INFORMATION
VERS.                           2.0:CWLS LOG ASCII STANDARD -VERSION 2.0
WRAP.                            NO:ONE LINE PER DEPTH STEP
~WELL INFORMATION
STRT.M                       128.40:ëíÄêí
STOP.M                       901.90:ëíéè
STEP.M                         0.10:òÄÉ
NULL.                       -999.25:NULL  VALUES
OPER.              å†™†‡•¢·™®© Ö.Ä.:éèÖêÄíéê
WELL.                           169:ëäÇÄÜàçÄ
KUST.                              :äìëí
FLD.                               :èãéôÄÑú
MEST.                   Ä™·Ó‚®≠·™Æ•:åÖëíéêéÜÑÖçàÖ
COMM.                              :äéååÖçíÄêàâ
DIRECTION.                   èéÑöå:çÄèêÄÇãÖçàÖ áÄèàëà
DATE.                    16/10/2024:ÑÄíÄ êÖÉàëíêÄñàà
TIME.                      21-46-13:ÇêÖåü êÖÉàëíêÄñàà
DATO.                    16/10/2024:ÑÄíÄ éäéçóÄçàü êÖÉàëíêÄñàà
TIMO.                      22-29-03:ÇêÖåü éäéçóÄçàü êÖÉàëíêÄñàà
ZABOY.                          897:É´„°®≠† ß†°ÆÔ
SV.¨/Á                        -1094:ë‡•§≠ÔÔ ·™Æ‡Æ·‚Ï
~CURVE INFORMATION
DEPT.M                             :
TIME.                              :
MAPO.                              :
SPD .M/H                           :
IK.¨ë¨/¨                           :20.67; 100*(k2-k3)/(k4-k3)+S0; S0 = 0; 
IK_Om.Om*m                         :19.97; 1000/y2; S0 = 0; 
BK.é¨¨                             :18.68; U/S*0.237; 
A4*0M0*5N.O¨¨                      :11.25; if (k13-k17)>P then 1000*(k12-k16)/(k10-k16) else 100*(k13-k17)/(k29-k17); 
A8*0M1*0N.é¨¨                      :15.50; if (k15-k17)>P then 1000*(k14-k16)/(k10-k16) else 100*(k15-k17)/(k29-k17); 
A0*4M0*1N.é¨¨                      :13.95; if (k19-k17)>P then 200*(k18-k16)/(k10-k16) else 20*(k19-k17)/(k29-k17); 
A1*0M0*1N.é¨¨                      :14.55; if (k21-k17)>P then 1000*(k20-k16)/(k10-k16) else 100*(k21-k17)/(k29-k17); 
A2*0M0*5N.é¨¨                      :15.75; if (k23-k17)>P then 1000*(k22-k16)/(k10-k16) else 100*(k23-k17)/(k29-k17); 
N0*5M2*0A.é¨¨                      :11.25; if (k25-k17)>P then 1000*(k24-k16)/(k10-k16) else 100*(k25-k17)/(k29-k17); 
N11*0M0*5A.é¨¨                     :13.25; if (k27-k17)>P then 200*(k26-k16)/(k10-k16) else 20*(k27-k17)/(k29-k17); 
PS.                                :11.25; k_acp3 / 6; 
R.é¨¨                              :6.00; (k11-k16)/(k10-k16)*Kp; Kp = 0.68; 
TOK.Ä                              :0.00; 0.7-(k1-k30)/(k32/2); 
Nat.                               :0.00; k_tense; 
Speed.                             :0.00; k_speed; 
Nat.                               :0.00; k_tense; 
~PARAMETER INFORMATION
~Other information block
PLT.                      ä1Ä-723-å:ç†ß¢†≠®• Ø´†≠Ë•‚†
IPRB.                       ä1Ä-723:à¨Ô Ø‡®°Æ‡†
NPRB.                            15:çÆ¨•‡ Ø‡®°Æ‡†
R_TYPE.                      VULCAN:í®Ø ‡•£®·‚‡†‚Æ‡†
POW_VER.                       0x80:Ç•‡·®Ô Ø´†‚Î Ø®‚†≠®Ô
GAIN_1.                        1.49:ì·®´•≠®• ¸1
GAIN_2.                           0:ì·®´•≠®• ¸2
GAIN_3.                           0:ì·®´•≠®• ¸3
PRG_1+.                           5:èÆ‡Æ£ 1+
PRG_1-.                        2.35:èÆ‡Æ£ 1-
PRG_2+.                           5:èÆ‡Æ£ 2+
PRG_2-.                           5:èÆ‡Æ£ 2-
PRG_3+.                           5:èÆ‡Æ£ 3+
PRG_3-.                           5:èÆ‡Æ£ 3-
LAST_CMD.                          :èÆ·´•§≠ÔÔ ™Æ¨†≠§†
RELE.                      18640550:ëÆ·‚ÆÔ≠®• ‡•´•
DRV.    kis1.bit (07.11.2001  9:29):Ñ‡†©¢•‡
SkIn1M.                    99.30181:à¨Ø„´Ï·Æ¢ òä ≠† 1 ¨•‚‡
REG_SN.                        -999:¸ ‡•£®·‚‡†‚Æ‡†
~ASCII Log Data
# ...
437.800       221245.516       0.000   -1150.318     133.612       8.759      32.014      71.586      34.009       1.305       6.443      25.264      25.533      14.228     -21.929       0.079       0.397      52.214    1150.318      52.214
437.900       221245.172       0.000   -1155.513     127.862       8.624      42.585      70.354      35.257       1.317       6.362      25.402      25.416      14.251      13.067       0.079       0.397      54.013    1155.513      54.013
438.000       221244.891       0.000   -1118.326     125.439       8.526      42.305      69.387      36.706       1.356       6.379      25.595      25.398      14.279      17.417       0.079       0.396      54.952    1118.326      54.952
438.100       221244.563       0.000   -1117.645     121.379       8.336      34.009      68.430      37.888       1.357       6.309      25.854      25.318      14.295     -45.333       0.077       0.396      54.130    1117.645      54.130
438.200       221244.297       0.000   -1112.006     117.856       7.791      38.069      67.334      39.293       1.349       6.233      26.042      25.077      14.279     -61.389       0.077       0.396      51.543    1112.006      51.543
438.300       221243.922       0.000   -1124.877     115.996       7.560      50.696      66.271      40.851       1.373       6.298      25.733      24.809      14.254     -78.476       0.076       0.395      55.091    1124.877      55.091
438.400       221243.578       0.000   -1130.534     114.375       7.360      63.427      65.285      42.965       1.367       6.250      25.517      24.537      14.267    -104.500       0.077       0.396      54.443    1130.534      54.443
438.500       221243.297       0.000   -1176.660     114.174       6.963      69.967      64.751      45.139       1.400       6.408      25.331      24.282      14.290     -18.767       0.077       0.396      54.300    1176.660      54.300
438.600       221242.984       0.000   -1157.501     115.960       6.536      55.572      64.313      46.669       1.437       6.581      25.137      23.976      14.323      -1.833       0.077       0.397      52.475    1157.501      52.475
438.700       221242.641       0.000   -1151.902     117.288       6.283      44.301      64.271      48.135       1.460       6.667      25.094      23.746      14.387      14.278       0.078       0.396      54.235    1151.902      54.235
438.800       221242.328       0.000   -1138.201     119.958       6.039      32.841      64.105      49.443       1.497       6.823      24.822      23.518      14.449      45.267       0.078       0.396      50.063    1138.201      50.063
438.900       221242.047       0.000   -1123.611     128.347       5.864      19.021      62.679      50.698       1.549       6.993      24.086      23.549      14.545      55.250       0.079       0.398      51.758    1123.611      51.758
439.000       221241.766       0.000   -1136.100     132.270       5.730      10.679      60.279      51.914       1.536       7.028      23.252      24.149      14.677      58.889       0.079       0.396      55.063    1136.100      55.063
439.100       221241.391       0.000   -1122.335     135.879       5.579       8.675      57.589      52.499       1.380       6.339      22.170      24.758      14.807       6.333       0.078       0.397      55.604    1122.335      55.604
439.200       221241.047       0.000   -1112.946     143.624       5.553       9.447      53.090      52.556       1.295       5.999      20.888      25.934      14.969       1.857       0.078       0.395      51.171    1112.946      51.171
439.300       221240.734       0.000   -1118.033     153.006       5.640      10.923      48.208      52.519       1.245       5.724      19.486      27.337      15.163       6.667       0.079       0.397      53.544    1118.033      53.544
439.400       221240.453       0.000   -1146.787     159.153       5.860      14.696      45.038      52.280       1.150       5.394      18.587      28.179      15.333      36.867       0.079       0.397      52.638    1146.787      52.638
439.500       221240.172       0.000   -1136.362     165.586       6.298      18.391      42.568      51.974       1.146       5.409      18.111      28.704      15.504      62.556       0.079       0.396      52.605    1136.362      52.605
439.600       221239.766       0.000   -1159.443     170.533       6.648      20.391      40.743      52.222       1.088       5.135      17.846      29.067      15.650      86.333       0.079       0.394      54.658    1159.443      54.658
439.700       221239.438       0.000   -1171.487     174.519       6.771      27.870      39.800      52.527       1.072       5.046      17.726      29.115      15.820      66.604       0.080       0.396      54.561    1171.487      54.561
439.800       221239.188       0.000   -1153.851     179.236       6.983      32.213      39.265      53.210       1.100       5.103      17.602      28.979      15.998     119.417       0.080       0.396      54.495    1153.851      54.495
439.900       221238.859       0.000   -1173.810     180.084       7.439      34.795      39.470      54.393       1.104       5.103      17.720      28.828      16.138      93.933       0.080       0.396      52.644    1173.810      52.644
440.000       221238.578       0.000   -1165.422     177.301       8.047      41.882      39.690      55.806       1.120       5.087      17.797      28.597      16.265      73.556       0.080       0.396      51.692    1165.422      51.692
440.100       221238.266       0.000   -1137.145     170.652       8.743      37.299      39.846      57.376       1.158       5.175      17.839      28.375      16.401     111.333       0.079       0.396      51.399    1137.145      51.399
440.200       221237.984       0.000   -1163.153     158.772       9.092      44.009      40.208      59.593       1.112       4.973      17.972      28.111      16.522      97.000       0.079       0.395      56.158    1163.153      56.158
440.300       221237.625       0.000   -1136.334     150.418       9.224      67.595      40.258      62.171       1.134       5.109      18.088      27.700      16.617      98.238       0.080       0.396      54.365    1136.334      54.365
440.400       221237.375       0.000   -1103.472     147.699       9.228      66.904      39.650      64.831       1.170       5.221      18.143      27.301      16.718     105.472       0.079       0.394      51.990    1103.472      51.990
440.500       221236.984       0.000   -1110.683     143.204       9.143      58.714      39.307      67.267       1.198       5.335      18.379      26.972      16.801      61.233       0.080       0.398      53.909    1110.683      53.909
440.600       221236.688       0.000   -1121.719     134.435       8.832      57.970      38.970      69.492       1.211       5.438      18.605      26.516      16.865      99.111       0.080       0.396      50.324    1121.719      50.324
440.700       221236.375       0.000   -1138.869     124.268       8.288      64.274      38.511      71.918       1.229       5.530      18.747      26.078      16.929     114.611       0.081       0.396      51.986    1138.869      51.986
440.800       221236.031       0.000   -1151.307     114.383       7.569      69.505      38.075      74.221       1.250       5.634      18.870      25.682      16.959      86.333       0.080       0.394      53.700    1151.307      53.700
440.900       221235.734       0.000   -1092.597     109.984       6.800      70.667      37.532      76.897       1.269       5.692      18.939      25.131      16.979      76.667       0.081       0.394      53.108    1092.597      53.108
441.000       221235.375       0.000   -1108.556     108.416       6.007      65.682      36.754      79.850       1.289       5.807      18.934      24.425      16.976      65.111       0.081       0.393      53.681    1108.556      53.681
441.100       221235.094       0.000   -1126.381     108.364       5.587      56.807      36.060      82.222       1.285       5.826      18.949      23.908      16.958       3.833       0.082       0.394      56.386    1126.381      56.386
