~VERSION INFORMATION
VERS.                           2.0:CWLS LOG ASCII STANDARD -VERSION 2.0
WRAP.                            NO:ONE LINE PER DEPTH STEP
~WELL INFORMATION
STRT.M                       128.40:ëíÄêí
STOP.M                       901.90:ëíéè
STEP.M                         0.10:òÄÉ
NULL.                       -999.25:NULL  VALUES
OPER.              å†™†‡•¢·™®© Ö.Ä.:éèÖêÄíéê
WELL.                           169:ëäÇÄÜàçÄ
KUST.                              :äìëí
FLD.                               :èãéôÄÑú
MEST.                   Ä™·Ó‚®≠·™Æ•:åÖëíéêéÜÑÖçàÖ
COMM.                              :äéååÖçíÄêàâ
DIRECTION.                   èéÑöå:çÄèêÄÇãÖçàÖ áÄèàëà
DATE.                    16/10/2024:ÑÄíÄ êÖÉàëíêÄñàà
TIME.                      21-46-13:ÇêÖåü êÖÉàëíêÄñàà
DATO.                    16/10/2024:ÑÄíÄ éäéçóÄçàü êÖÉàëíêÄñàà
TIMO.                      22-29-03:ÇêÖåü éäéçóÄçàü êÖÉàëíêÄñàà
ZABOY.                          897:É´„°®≠† ß†°ÆÔ
SV.¨/Á                        -1094:ë‡•§≠ÔÔ ·™Æ‡Æ·‚Ï
~CURVE INFORMATION
DEPT.M                             :
TIME.                              :
MAPO.                              :
SPD .M/H                           :
IK.¨ë¨/¨                           :20.67; 100*(k2-k3)/(k4-k3)+S0; S0 = 0; 
IK_Om.Om*m                         :19.97; 1000/y2; S0 = 0; 
BK.é¨¨                             :18.68; U/S*0.237; 
A4*0M0*5N.O¨¨                      :11.25; if (k13-k17)>P then 1000*(k12-k16)/(k10-k16) else 100*(k13-k17)/(k29-k17); 
A8*0M1*0N.é¨¨                      :15.50; if (k15-k17)>P then 1000*(k14-k16)/(k10-k16) else 100*(k15-k17)/(k29-k17); 
A0*4M0*1N.é¨¨                      :13.95; if (k19-k17)>P then 200*(k18-k16)/(k10-k16) else 20*(k19-k17)/(k29-k17); 
A1*0M0*1N.é¨¨                      :14.55; if (k21-k17)>P then 1000*(k20-k16)/(k10-k16) else 100*(k21-k17)/(k29-k17); 
A2*0M0*5N.é¨¨                      :15.75; if (k23-k17)>P then 1000*(k22-k16)/(k10-k16) else 100*(k23-k17)/(k29-k17); 
N0*5M2*0A.é¨¨                      :11.25; if (k25-k17)>P then 1000*(k24-k16)/(k10-k16) else 100*(k25-k17)/(k29-k17); 
N11*0M0*5A.é¨¨                     :13.25; if (k27-k17)>P then 200*(k26-k16)/(k10-k16) else 20*(k27-k17)/(k29-k17); 
PS.                                :11.25; k_acp3 / 6; 
R.é¨¨                              :6.00; (k11-k16)/(k10-k16)*Kp; Kp = 0.68; 
TOK.Ä                              :0.00; 0.7-(k1-k30)/(k32/2); 
Nat.                               :0.00; k_tense; 
Speed.                             :0.00; k_speed; 
Nat.                               :0.00; k_tense; 
~PARAMETER INFORMATION
~Other information block
PLT.                      ä1Ä-723-å:ç†ß¢†≠®• Ø´†≠Ë•‚†
IPRB.                       ä1Ä-723:à¨Ô Ø‡®°Æ‡†
NPRB.                            15:çÆ¨•‡ Ø‡®°Æ‡†
R_TYPE.                      VULCAN:í®Ø ‡•£®·‚‡†‚Æ‡†
POW_VER.                       0x80:Ç•‡·®Ô Ø´†‚Î Ø®‚†≠®Ô
GAIN_1.                        1.49:ì·®´•≠®• ¸1
GAIN_2.                           0:ì·®´•≠®• ¸2
GAIN_3.                           0:ì·®´•≠®• ¸3
PRG_1+.                           5:èÆ‡Æ£ 1+
PRG_1-.                        2.35:èÆ‡Æ£ 1-
PRG_2+.                           5:èÆ‡Æ£ 2+
PRG_2-.                           5:èÆ‡Æ£ 2-
PRG_3+.                           5:èÆ‡Æ£ 3+
PRG_3-.                           5:èÆ‡Æ£ 3-
LAST_CMD.                          :èÆ·´•§≠ÔÔ ™Æ¨†≠§†
RELE.                      18640550:ëÆ·‚ÆÔ≠®• ‡•´•
DRV.    kis1.bit (07.11.2001  9:29):Ñ‡†©¢•‡
SkIn1M.                    99.30181:à¨Ø„´Ï·Æ¢ òä ≠† 1 ¨•‚‡
REG_SN.                        -999:¸ ‡•£®·‚‡†‚Æ‡†
~ASCII Log Data
# ...
488.800       221002.453       0.000   -1174.545     186.769       6.050     150.606       7.456      32.550       0.197       0.833       3.876      16.925      20.904      85.396       0.071       0.398      40.598    1174.545      40.598
488.900       221002.203       0.000   -1116.770     186.424       5.928     151.974       7.518      32.970       0.197       0.840       3.941      17.169      20.920     103.767       0.072       0.394      42.664    1116.770      42.664
489.000       221001.906       0.000   -1099.667     192.163       5.467     151.574       7.720      33.508       0.212       0.929       4.050      17.700      20.924     102.556       0.071       0.398      47.560    1099.667      47.560
489.100       221001.625       0.000   -1125.433     197.752       5.084     145.951       7.646      34.112       0.211       0.911       4.031      17.570      20.895     124.633       0.071       0.395      42.045    1125.433      42.045
489.200       221001.297       0.000   -1136.873     210.341       4.714     142.486       7.694      34.826       0.205       0.872       4.094      17.700      20.893     119.762       0.071       0.396      41.947    1136.873      41.947
489.300       221000.875       0.000   -1165.019     211.703       5.149     136.632       7.784      35.310       0.182       0.824       4.154      17.901      20.880      85.857       0.072       0.396      41.849    1165.019      41.849
489.400       221000.625       0.000   -1123.995     190.809       6.179     133.485       7.944      35.594       0.200       0.896       4.199      18.254      20.894     105.800       0.070       0.395      42.599    1123.995      42.599
489.500       221000.313       0.000   -1101.164     165.292       6.983     134.284       8.035      35.497       0.216       0.961       4.309      18.493      20.873     111.222       0.072       0.396      45.213    1101.164      45.213
489.600       220959.984       0.000   -1073.454     168.685       7.814     135.214       8.390      35.091       0.220       0.982       4.457      19.267      20.862      85.900       0.072       0.396      44.196    1073.454      44.196
489.700       220959.703       0.000   -1136.688     182.915       7.646     135.856       8.516      35.032       0.228       1.021       4.482      19.498      20.837     128.021       0.070       0.396      46.673    1136.688      46.673
489.800       220959.375       0.000   -1137.496     196.689       6.839     139.716       8.463      35.182       0.213       0.961       4.409      19.428      20.835      61.722       0.070       0.395      46.459    1137.496      46.459
489.900       220959.000       0.000   -1185.842     212.121       6.384     142.171       8.171      34.763       0.202       0.912       4.255      18.757      20.836      77.000       0.071       0.398      42.632    1185.842      42.632
490.000       220958.703       0.000   -1133.547     194.204       5.640     144.125       7.962      34.197       0.208       0.921       4.115      18.233      20.823      99.889       0.071       0.397      48.225    1133.547      48.225
490.100       220958.406       0.000   -1113.222     161.848       5.090     146.330       7.720      33.482       0.189       0.813       4.029      17.629      20.796     104.733       0.074       0.396      48.023    1113.222      48.023
490.200       220958.063       0.000   -1136.407     143.197       5.243     147.396       7.603      32.426       0.200       0.880       3.924      17.370      20.742      73.262       0.071       0.395      42.436    1136.407      42.436
490.300       220957.781       0.000   -1127.268     127.975       5.448     149.083       7.372      32.017       0.202       0.872       3.869      16.852      20.722     101.267       0.071       0.395      39.829    1127.268      39.829
490.400       220957.469       0.000   -1144.203     130.793       5.316     149.225       7.404      31.468       0.190       0.816       3.895      16.891      20.691     118.067       0.071       0.396      41.898    1144.203      41.898
490.500       220957.031       0.000   -1114.565     146.218       5.369     149.523       7.403      31.156       0.196       0.808       3.843      16.906      20.664      91.479       0.073       0.397      44.587    1114.565      44.587
490.600       220956.813       0.000   -1116.757     156.635       5.090     148.924       7.300      31.393       0.200       0.840       3.803      16.597      20.640      76.056       0.070       0.394      42.967    1116.757      42.967
490.700       220956.469       0.000   -1109.359     177.318       4.786     147.358       7.259      31.500       0.187       0.801       3.795      16.432      20.615      60.433       0.072       0.395      43.570    1109.359      43.570
490.800       220956.156       0.000   -1163.168     196.448       4.984     136.565       7.340      31.355       0.197       0.814       3.805      16.618      20.551      82.944       0.071       0.396      47.677    1163.168      47.677
490.900       220955.906       0.000   -1147.231     190.723       5.032     131.708       7.356      31.678       0.191       0.791       3.850      16.625      20.470      77.806       0.070       0.396      40.774    1147.231      40.774
491.000       220955.500       0.000   -1116.127     183.551       5.177     128.464       7.596      31.966       0.197       0.846       3.981      17.105      20.433     104.028       0.071       0.395      46.641    1116.127      46.641
491.100       220955.156       0.000   -1164.962     188.095       5.680     125.712       7.771      31.899       0.210       0.883       4.005      17.494      20.420      95.214       0.071       0.396      45.917    1164.962      45.917
491.200       220954.906       0.000   -1155.911     186.240       6.185     125.628       7.989      31.799       0.220       0.937       4.126      17.969      20.424      63.833       0.072       0.396      41.915    1155.911      41.915
491.300       220954.563       0.000   -1198.608     196.451       6.606     128.188       8.139      31.759       0.197       0.872       4.210      18.332      20.442      79.810       0.069       0.396      43.903    1198.608      43.903
491.400       220954.281       0.000   -1160.970     208.925       7.130     132.185       8.292      31.602       0.210       0.929       4.198      18.700      20.441      86.133       0.070       0.397      47.403    1160.970      47.403
491.500       220954.000       0.000   -1128.871     200.627       6.502     133.935       8.067      31.476       0.212       0.943       4.062      18.225      20.428      57.556       0.073       0.396      44.555    1128.871      44.555
491.600       220953.688       0.000   -1092.788     198.712       5.428     133.981       7.969      31.370       0.207       0.888       4.054      17.998      20.418      90.933       0.070       0.396      41.928    1092.788      41.928
491.700       220953.406       0.000   -1114.439     193.152       4.891     133.831       7.735      31.609       0.182       0.775       3.909      17.548      20.378      97.563       0.070       0.398      41.898    1114.439      41.898
491.800       220952.969       1.000   -1128.683     176.071       5.036     134.274       7.494      31.751       0.203       0.864       3.828      17.006      20.354     117.806       0.072       0.397      44.470    1128.683      44.470
491.900       220952.688       1.000   -1124.049     161.691       5.719     133.306       7.404      31.296       0.187       0.767       3.798      16.714      20.368      77.867       0.070       0.398      44.359    1124.049      44.359
492.000       220952.406       1.000   -1109.242     151.384       6.293     130.827       7.654      31.072       0.200       0.816       4.005      17.239      20.410      58.222       0.070       0.396      39.307    1109.242      39.307
492.100       220951.875       0.000   -1110.477     140.251       7.152     131.297       7.999      30.749       0.202       0.872       4.110      18.012      20.449      97.625       0.070       0.397      44.503    1110.477      44.503
