~VERSION INFORMATION
VERS.                           2.0:CWLS LOG ASCII STANDARD -VERSION 2.0
WRAP.                            NO:ONE LINE PER DEPTH STEP
~WELL INFORMATION
STRT.M                       128.40:ëíÄêí
STOP.M                       901.90:ëíéè
STEP.M                         0.10:òÄÉ
NULL.                       -999.25:NULL  VALUES
OPER.              å†™†‡•¢·™®© Ö.Ä.:éèÖêÄíéê
WELL.                           169:ëäÇÄÜàçÄ
KUST.                              :äìëí
FLD.                               :èãéôÄÑú
MEST.                   Ä™·Ó‚®≠·™Æ•:åÖëíéêéÜÑÖçàÖ
COMM.                              :äéååÖçíÄêàâ
DIRECTION.                   èéÑöå:çÄèêÄÇãÖçàÖ áÄèàëà
DATE.                    16/10/2024:ÑÄíÄ êÖÉàëíêÄñàà
TIME.                      21-46-13:ÇêÖåü êÖÉàëíêÄñàà
DATO.                    16/10/2024:ÑÄíÄ éäéçóÄçàü êÖÉàëíêÄñàà
TIMO.                      22-29-03:ÇêÖåü éäéçóÄçàü êÖÉàëíêÄñàà
ZABOY.                          897:É´„°®≠† ß†°ÆÔ
SV.¨/Á                        -1094:ë‡•§≠ÔÔ ·™Æ‡Æ·‚Ï
~CURVE INFORMATION
DEPT.M                             :
TIME.                              :
MAPO.                              :
SPD .M/H                           :
IK.¨ë¨/¨                           :20.67; 100*(k2-k3)/(k4-k3)+S0; S0 = 0; 
IK_Om.Om*m                         :19.97; 1000/y2; S0 = 0; 
BK.é¨¨                             :18.68; U/S*0.237; 
A4*0M0*5N.O¨¨                      :11.25; if (k13-k17)>P then 1000*(k12-k16)/(k10-k16) else 100*(k13-k17)/(k29-k17); 
A8*0M1*0N.é¨¨                      :15.50; if (k15-k17)>P then 1000*(k14-k16)/(k10-k16) else 100*(k15-k17)/(k29-k17); 
A0*4M0*1N.é¨¨                      :13.95; if (k19-k17)>P then 200*(k18-k16)/(k10-k16) else 20*(k19-k17)/(k29-k17); 
A1*0M0*1N.é¨¨                      :14.55; if (k21-k17)>P then 1000*(k20-k16)/(k10-k16) else 100*(k21-k17)/(k29-k17); 
A2*0M0*5N.é¨¨                      :15.75; if (k23-k17)>P then 1000*(k22-k16)/(k10-k16) else 100*(k23-k17)/(k29-k17); 
N0*5M2*0A.é¨¨                      :11.25; if (k25-k17)>P then 1000*(k24-k16)/(k10-k16) else 100*(k25-k17)/(k29-k17); 
N11*0M0*5A.é¨¨                     :13.25; if (k27-k17)>P then 200*(k26-k16)/(k10-k16) else 20*(k27-k17)/(k29-k17); 
PS.                                :11.25; k_acp3 / 6; 
R.é¨¨                              :6.00; (k11-k16)/(k10-k16)*Kp; Kp = 0.68; 
TOK.Ä                              :0.00; 0.7-(k1-k30)/(k32/2); 
Nat.                               :0.00; k_tense; 
Speed.                             :0.00; k_speed; 
Nat.                               :0.00; k_tense; 
~PARAMETER INFORMATION
~Other information block
PLT.                      ä1Ä-723-å:ç†ß¢†≠®• Ø´†≠Ë•‚†
IPRB.                       ä1Ä-723:à¨Ô Ø‡®°Æ‡†
NPRB.                            15:çÆ¨•‡ Ø‡®°Æ‡†
R_TYPE.                      VULCAN:í®Ø ‡•£®·‚‡†‚Æ‡†
POW_VER.                       0x80:Ç•‡·®Ô Ø´†‚Î Ø®‚†≠®Ô
GAIN_1.                        1.49:ì·®´•≠®• ¸1
GAIN_2.                           0:ì·®´•≠®• ¸2
GAIN_3.                           0:ì·®´•≠®• ¸3
PRG_1+.                           5:èÆ‡Æ£ 1+
PRG_1-.                        2.35:èÆ‡Æ£ 1-
PRG_2+.                           5:èÆ‡Æ£ 2+
PRG_2-.                           5:èÆ‡Æ£ 2-
PRG_3+.                           5:èÆ‡Æ£ 3+
PRG_3-.                           5:èÆ‡Æ£ 3-
LAST_CMD.                          :èÆ·´•§≠ÔÔ ™Æ¨†≠§†
RELE.                      18640550:ëÆ·‚ÆÔ≠®• ‡•´•
DRV.    kis1.bit (07.11.2001  9:29):Ñ‡†©¢•‡
SkIn1M.                    99.30181:à¨Ø„´Ï·Æ¢ òä ≠† 1 ¨•‚‡
REG_SN.                        -999:¸ ‡•£®·‚‡†‚Æ‡†
~ASCII Log Data
# ...
839.000       214937.422       0.000    -715.277     157.254       6.537      19.343      41.552       7.656       1.609       6.956      21.319      28.532      14.086     -17.167       0.098       0.396      99.648     715.277      99.648
839.100       214936.922       0.000    -725.805     156.337       6.478      18.813      41.312       7.927       1.604       6.945      21.129      29.090      14.195       3.926       0.098       0.395      99.226     725.805      99.226
839.200       214936.391       0.000    -746.151     154.216       6.390      15.345      40.699       8.270       1.627       6.993      20.726      29.838      14.343     -29.450       0.098       0.395      98.952     746.151      98.952
839.300       214935.891       0.000    -730.292     150.910       6.415       9.368      39.538       8.767       1.639       7.046      20.120      31.135      14.558      18.905       0.097       0.397      99.148     730.292      99.148
839.400       214935.391       0.000    -728.359     149.104       6.587       8.647      38.209       9.309       1.470       6.336      19.607      32.654      14.763      23.136       0.097       0.397      99.148     728.359      99.148
839.500       214935.016       0.000    -717.809     147.910       6.746      11.788      36.990       9.918       1.376       5.962      19.078      34.025      14.966      -2.396       0.097       0.396      99.148     717.809      99.148
839.600       214934.453       0.000    -722.516     150.969       6.847      18.248      35.809      10.622       1.362       5.915      18.521      35.297      15.189     -12.259       0.096       0.395     100.104     722.516     100.104
839.700       214933.984       0.000    -775.364     152.968       6.924      25.449      35.007      11.258       1.374       5.975      18.483      36.405      15.370     -12.500       0.096       0.396      98.170     775.364      98.170
839.800       214933.484       0.000    -791.628     154.358       7.018      29.114      35.008      11.989       1.384       6.035      18.548      36.703      15.573       3.104       0.096       0.396      97.094     791.628      97.094
839.900       214932.984       0.000    -730.944     156.498       7.070      29.106      35.050      12.932       1.407       6.133      18.633      36.748      15.808     -55.233       0.096       0.396      99.762     730.944      99.762
840.000       214932.609       0.000    -719.018     155.888       7.144      25.918      34.934      13.867       1.441       6.202      18.710      36.836      16.042      -2.593       0.096       0.397     100.060     719.018     100.060
840.100       214932.125       0.000    -725.655     151.821       7.237      23.372      34.794      14.815       1.414       6.119      18.829      36.926      16.306     -37.050       0.096       0.397      99.148     725.655      99.148
840.200       214931.516       0.000    -751.338     148.244       7.271      24.710      34.561      15.790       1.400       6.091      18.838      37.028      16.569       7.405       0.096       0.395      97.431     751.338      97.431
840.300       214931.016       0.000    -759.087     146.057       7.337      23.264      34.125      16.899       1.439       6.146      18.791      37.419      16.863      33.606       0.097       0.396      95.389     759.087      95.389
840.400       214930.594       0.000    -738.433     144.418       7.508      19.653      33.732      18.094       1.416       6.173      18.777      37.764      17.109     -13.271       0.097       0.394      99.104     738.433      99.104
840.500       214930.094       0.000    -720.511     142.495       7.616      22.590      33.527      19.301       1.359       5.939      18.771      38.086      17.337      20.074       0.097       0.398      99.148     720.511      99.148
840.600       214929.594       0.000    -725.463     141.441       7.694      21.614      33.112      20.547       1.380       6.067      18.616      38.774      17.648     -11.683       0.098       0.396      97.496     725.463      97.496
840.700       214929.094       0.000    -752.139     139.982       7.732      20.553      32.760      21.978       1.352       5.980      18.643      39.325      17.941       7.333       0.098       0.397      98.561     752.139      98.561
840.800       214928.594       0.000    -764.165     138.183       7.685      31.217      32.738      23.297       1.297       5.835      18.752      39.558      18.212       8.463       0.098       0.396      98.072     764.165      98.072
840.900       214928.156       0.000    -734.865     137.541       7.566      39.826      32.745      24.820       1.335       6.031      18.862      39.722      18.450      -4.810       0.099       0.396     103.015     734.865     103.015
841.000       214927.688       0.000    -737.914     136.304       7.499      45.436      32.775      26.602       1.333       6.021      19.140      39.872      18.695     -10.300       0.099       0.395      99.148     737.914      99.148
841.100       214927.188       0.000    -776.566     133.194       7.510      50.252      33.149      28.054       1.349       6.132      19.485      39.592      18.957      69.500       0.099       0.397      99.148     776.566      99.148
841.200       214926.688       0.000    -778.051     131.304       7.491      64.181      33.563      29.539       1.354       6.187      19.860      39.247      19.186      86.976       0.100       0.397      99.148     778.051      99.148
841.300       214926.188       0.000    -761.342     129.973       7.498      98.588      34.059      31.322       1.378       6.307      20.364      38.852      19.384      62.967       0.100       0.398      99.204     761.342      99.204
841.400       214925.813       0.000    -755.608     129.336       7.559     139.459      34.750      33.172       1.420       6.500      20.806      38.238      19.556      97.463       0.100       0.398      99.382     755.608      99.382
841.500       214925.313       0.000    -756.797     130.131       7.738     177.729      35.514      35.440       1.457       6.662      21.257      37.461      19.696      34.933       0.100       0.397     100.930     756.797     100.930
841.600       214924.813       0.000    -765.253     132.168       8.130     211.616      36.349      37.569       1.484       6.833      21.809      36.608      19.798      -3.889       0.100       0.397      99.221     765.253      99.221
841.700       214924.375       0.000    -751.925     133.353       8.578     203.849      37.161      39.863       1.519       7.002      22.361      35.745      19.900      41.350       0.100       0.398      99.148     751.925      99.148
841.800       214923.844       0.000    -701.639     133.148       9.176     184.897      37.846      42.503       1.569       7.179      23.058      34.959      19.972      68.429       0.100       0.399      99.197     701.639      99.197
841.900       214923.406       1.000    -686.221     133.496       9.995     173.388      38.559      44.638       1.607       7.378      23.708      34.208      20.021      45.074       0.100       0.398      98.496     686.221      98.496
842.000       214922.906       1.000    -725.841     133.368      10.751     161.462      39.531      46.807       1.642       7.563      24.306      33.349      20.059      67.259       0.100       0.398      99.343     725.841      99.343
842.100       214921.984       0.000    -745.396     132.301      11.280     149.515      40.473      49.271       1.680       7.767      24.978      32.548      20.079      87.900       0.101       0.397      96.745     745.396      96.745
842.200       214921.594       0.000    -744.163     129.240      11.807     134.113      41.406      51.578       1.716       7.913      25.523      31.745      20.089      77.050       0.101       0.396      98.974     744.163      98.974
842.300       214921.094       0.000    -752.061     123.007      12.232     123.290      42.475      53.861       1.750       8.097      26.059      30.922      20.084      35.093       0.101       0.397      96.645     752.061      96.645
