~VERSION INFORMATION
VERS.                           2.0:CWLS LOG ASCII STANDARD -VERSION 2.0
WRAP.                            NO:ONE LINE PER DEPTH STEP
~WELL INFORMATION
STRT.M                       128.40:ëíÄêí
STOP.M                       901.90:ëíéè
STEP.M                         0.10:òÄÉ
NULL.                       -999.25:NULL  VALUES
OPER.              å†™†‡•¢·™®© Ö.Ä.:éèÖêÄíéê
WELL.                           169:ëäÇÄÜàçÄ
KUST.                              :äìëí
FLD.                               :èãéôÄÑú
MEST.                   Ä™·Ó‚®≠·™Æ•:åÖëíéêéÜÑÖçàÖ
COMM.                              :äéååÖçíÄêàâ
DIRECTION.                   èéÑöå:çÄèêÄÇãÖçàÖ áÄèàëà
DATE.                    16/10/2024:ÑÄíÄ êÖÉàëíêÄñàà
TIME.                      21-46-13:ÇêÖåü êÖÉàëíêÄñàà
DATO.                    16/10/2024:ÑÄíÄ éäéçóÄçàü êÖÉàëíêÄñàà
TIMO.                      22-29-03:ÇêÖåü éäéçóÄçàü êÖÉàëíêÄñàà
ZABOY.                          897:É´„°®≠† ß†°ÆÔ
SV.¨/Á                        -1094:ë‡•§≠ÔÔ ·™Æ‡Æ·‚Ï
~CURVE INFORMATION
DEPT.M                             :
TIME.                              :
MAPO.                              :
SPD .M/H                           :
IK.¨ë¨/¨                           :20.67; 100*(k2-k3)/(k4-k3)+S0; S0 = 0; 
IK_Om.Om*m                         :19.97; 1000/y2; S0 = 0; 
BK.é¨¨                             :18.68; U/S*0.237; 
A4*0M0*5N.O¨¨                      :11.25; if (k13-k17)>P then 1000*(k12-k16)/(k10-k16) else 100*(k13-k17)/(k29-k17); 
A8*0M1*0N.é¨¨                      :15.50; if (k15-k17)>P then 1000*(k14-k16)/(k10-k16) else 100*(k15-k17)/(k29-k17); 
A0*4M0*1N.é¨¨                      :13.95; if (k19-k17)>P then 200*(k18-k16)/(k10-k16) else 20*(k19-k17)/(k29-k17); 
A1*0M0*1N.é¨¨                      :14.55; if (k21-k17)>P then 1000*(k20-k16)/(k10-k16) else 100*(k21-k17)/(k29-k17); 
A2*0M0*5N.é¨¨                      :15.75; if (k23-k17)>P then 1000*(k22-k16)/(k10-k16) else 100*(k23-k17)/(k29-k17); 
N0*5M2*0A.é¨¨                      :11.25; if (k25-k17)>P then 1000*(k24-k16)/(k10-k16) else 100*(k25-k17)/(k29-k17); 
N11*0M0*5A.é¨¨                     :13.25; if (k27-k17)>P then 200*(k26-k16)/(k10-k16) else 20*(k27-k17)/(k29-k17); 
PS.                                :11.25; k_acp3 / 6; 
R.é¨¨                              :6.00; (k11-k16)/(k10-k16)*Kp; Kp = 0.68; 
TOK.Ä                              :0.00; 0.7-(k1-k30)/(k32/2); 
Nat.                               :0.00; k_tense; 
Speed.                             :0.00; k_speed; 
Nat.                               :0.00; k_tense; 
~PARAMETER INFORMATION
~Other information block
PLT.                      ä1Ä-723-å:ç†ß¢†≠®• Ø´†≠Ë•‚†
IPRB.                       ä1Ä-723:à¨Ô Ø‡®°Æ‡†
NPRB.                            15:çÆ¨•‡ Ø‡®°Æ‡†
R_TYPE.                      VULCAN:í®Ø ‡•£®·‚‡†‚Æ‡†
POW_VER.                       0x80:Ç•‡·®Ô Ø´†‚Î Ø®‚†≠®Ô
GAIN_1.                        1.49:ì·®´•≠®• ¸1
GAIN_2.                           0:ì·®´•≠®• ¸2
GAIN_3.                           0:ì·®´•≠®• ¸3
PRG_1+.                           5:èÆ‡Æ£ 1+
PRG_1-.                        2.35:èÆ‡Æ£ 1-
PRG_2+.                           5:èÆ‡Æ£ 2+
PRG_2-.                           5:èÆ‡Æ£ 2-
PRG_3+.                           5:èÆ‡Æ£ 3+
PRG_3-.                           5:èÆ‡Æ£ 3-
LAST_CMD.                          :èÆ·´•§≠ÔÔ ™Æ¨†≠§†
RELE.                      18640550:ëÆ·‚ÆÔ≠®• ‡•´•
DRV.    kis1.bit (07.11.2001  9:29):Ñ‡†©¢•‡
SkIn1M.                    99.30181:à¨Ø„´Ï·Æ¢ òä ≠† 1 ¨•‚‡
REG_SN.                        -999:¸ ‡•£®·‚‡†‚Æ‡†
~ASCII Log Data
# ...
590.800       220436.203       0.000   -1178.400     434.814       2.572       2.583       5.038       4.123       1.069       2.850       4.328       4.602       3.231     262.556       0.159       0.400      72.865    1178.400      72.865
590.900       220435.922       0.000   -1131.479     448.639       2.611       2.687       5.215       4.186       1.164       3.068       4.562       4.787       3.293     264.233       0.145       0.398      69.325    1131.479      69.325
591.000       220435.641       0.000   -1114.750     454.184       2.604       2.569       5.474       4.334       1.156       3.084       4.761       4.966       3.318     210.222       0.147       0.398      68.484    1114.750      68.484
591.100       220435.328       0.000   -1159.348     441.548       2.562       2.596       5.565       4.473       1.153       3.101       4.801       5.023       3.340     244.800       0.149       0.400      67.402    1159.348      67.402
591.200       220435.047       0.000   -1146.726     424.176       2.526       2.610       5.535       4.627       1.164       2.980       4.780       4.948       3.297     272.738       0.151       0.399      70.376    1146.726      70.376
591.300       220434.609       0.000   -1113.573     407.538       2.495       2.807       5.401       4.675       1.185       3.003       4.741       4.731       3.228     258.400       0.157       0.398      72.395    1113.573      72.395
591.400       220434.328       0.000   -1142.640     393.260       2.530       2.579       5.291       4.764       1.255       3.068       4.667       4.561       3.218     214.643       0.153       0.398      72.878    1142.640      72.878
591.500       220434.047       0.000   -1103.918     388.755       2.580       2.296       5.224       4.819       1.180       2.890       4.675       4.505       3.235     200.528       0.153       0.401      67.976    1103.918      67.976
591.600       220433.734       0.000   -1120.050     382.971       2.534       2.450       5.187       4.838       1.179       2.784       4.659       4.444       3.259     223.639       0.155       0.399      73.725    1120.050      73.725
591.700       220433.453       0.000   -1127.981     384.023       2.483       2.640       5.241       4.901       1.308       3.052       4.732       4.498       3.283     205.667       0.154       0.399      73.660    1127.981      73.660
591.800       220433.109       1.000   -1102.954     390.324       2.445       2.816       5.370       4.966       1.306       3.036       4.871       4.546       3.283     233.833       0.154       0.400      71.770    1102.954      71.770
591.900       220432.734       1.000   -1092.603     395.896       2.434       2.656       5.380       5.071       1.474       3.511       4.890       4.489       3.281     217.976       0.152       0.400      71.933    1092.603      71.933
592.000       220432.453       1.000   -1109.888     400.785       2.462       2.067       5.289       5.222       1.440       3.500       4.821       4.489       3.288     262.367       0.156       0.400      69.227    1109.888      69.227
592.100       220432.047       0.000   -1159.757     395.228       2.613       1.886       5.206       5.346       1.242       3.108       4.756       4.528       3.299     256.095       0.156       0.398      71.305    1159.757      71.305
592.200       220431.641       0.000   -1186.312     387.552       2.673       1.896       5.054       5.434       1.238       3.107       4.627       4.610       3.338     260.600       0.157       0.398      69.782    1186.312      69.782
592.300       220431.266       0.000   -1147.608     394.558       2.670       2.178       4.803       5.482       1.185       3.019       4.452       4.626       3.381     254.972       0.162       0.398      68.201    1147.608      68.201
592.400       220431.047       0.000   -1107.142     402.775       2.655       2.396       4.788       5.489       1.257       3.213       4.360       4.692       3.421     262.033       0.162       0.398      67.859    1107.142      67.859
592.500       220430.703       0.000   -1103.626     409.037       2.631       2.359       4.785       5.522       1.237       3.146       4.400       4.694       3.457     225.833       0.160       0.400      70.140    1103.626      70.140
592.600       220430.438       0.000   -1114.090     410.797       2.616       2.586       4.820       5.668       1.200       3.060       4.449       4.651       3.482     245.194       0.160       0.398      69.345    1114.090      69.345
592.700       220430.125       0.000   -1114.277     406.178       2.623       2.585       4.828       5.819       1.282       3.270       4.456       4.642       3.499     216.600       0.159       0.400      67.247    1114.277      67.247
592.800       220429.688       0.000   -1136.407     382.661       2.661       2.304       4.812       5.990       1.307       3.249       4.417       4.642       3.500     172.556       0.160       0.399      67.546    1136.407      67.546
592.900       220429.438       0.000   -1110.055     374.131       2.750       2.074       4.853       6.141       1.297       3.189       4.481       4.683       3.531     228.300       0.160       0.398      69.390    1110.055      69.390
593.000       220429.125       0.000   -1101.575     374.529       2.835       2.138       4.952       6.306       1.214       3.062       4.482       4.721       3.545     229.375       0.157       0.398      68.132    1101.575      68.132
593.100       220428.844       0.000   -1150.010     376.597       2.853       2.649       5.103       6.426       1.255       3.173       4.634       4.667       3.565     207.250       0.156       0.400      67.272    1150.010      67.272
593.200       220428.516       0.000   -1122.938     380.042       2.829       3.101       5.280       6.506       1.316       3.294       4.850       4.545       3.582     226.333       0.159       0.398      71.330    1122.938      71.330
593.300       220428.094       0.000   -1158.167     382.199       2.750       3.887       5.362       6.555       1.296       3.286       5.119       4.360       3.554     254.167       0.162       0.398      70.166    1158.167      70.166
593.400       220427.813       0.000   -1114.299     381.258       2.674       4.875       5.581       6.595       1.441       3.650       5.296       3.824       3.513     205.917       0.164       0.400      67.272    1114.299      67.272
593.500       220427.531       0.000   -1142.189     375.772       2.613       3.735       5.514       6.644       1.619       4.061       5.425       3.609       3.501     171.833       0.167       0.398      67.272    1142.189      67.272
593.600       220427.203       0.000   -1149.016     363.627       2.546       3.002       5.377       6.588       1.637       3.980       5.481       3.440       3.490     176.833       0.166       0.400      70.824    1149.016      70.824
593.700       220426.938       0.000   -1172.105     352.758       2.485       2.528       5.159       6.486       1.670       4.005       5.387       3.319       3.487     185.556       0.158       0.398      67.932    1172.105      67.932
593.800       220426.500       0.000   -1149.319     350.523       2.455       2.293       4.950       6.419       1.617       3.851       5.215       3.238       3.479     226.700       0.160       0.398      67.272    1149.319      67.272
593.900       220426.219       0.000   -1124.432     353.537       2.450       2.307       4.737       6.330       1.599       3.770       5.054       3.235       3.434     228.896       0.164       0.400      67.272    1124.432      67.272
594.000       220425.938       0.000   -1111.128     363.613       2.470       2.217       4.642       6.250       1.589       3.789       4.884       3.358       3.354     223.733       0.166       0.397      67.389    1111.128      67.389
594.100       220425.625       0.000   -1131.372     373.965       2.511       1.985       4.609       6.241       1.495       3.657       4.836       3.479       3.333     210.833       0.169       0.398      67.565    1131.372      67.565
