~VERSION INFORMATION
VERS.                           2.0:CWLS LOG ASCII STANDARD -VERSION 2.0
WRAP.                            NO:ONE LINE PER DEPTH STEP
~WELL INFORMATION
STRT.M                       128.40:ëíÄêí
STOP.M                       901.90:ëíéè
STEP.M                         0.10:òÄÉ
NULL.                       -999.25:NULL  VALUES
OPER.              å†™†‡•¢·™®© Ö.Ä.:éèÖêÄíéê
WELL.                           169:ëäÇÄÜàçÄ
KUST.                              :äìëí
FLD.                               :èãéôÄÑú
MEST.                   Ä™·Ó‚®≠·™Æ•:åÖëíéêéÜÑÖçàÖ
COMM.                              :äéååÖçíÄêàâ
DIRECTION.                   èéÑöå:çÄèêÄÇãÖçàÖ áÄèàëà
DATE.                    16/10/2024:ÑÄíÄ êÖÉàëíêÄñàà
TIME.                      21-46-13:ÇêÖåü êÖÉàëíêÄñàà
DATO.                    16/10/2024:ÑÄíÄ éäéçóÄçàü êÖÉàëíêÄñàà
TIMO.                      22-29-03:ÇêÖåü éäéçóÄçàü êÖÉàëíêÄñàà
ZABOY.                          897:É´„°®≠† ß†°ÆÔ
SV.¨/Á                        -1094:ë‡•§≠ÔÔ ·™Æ‡Æ·‚Ï
~CURVE INFORMATION
DEPT.M                             :
TIME.                              :
MAPO.                              :
SPD .M/H                           :
IK.¨ë¨/¨                           :20.67; 100*(k2-k3)/(k4-k3)+S0; S0 = 0; 
IK_Om.Om*m                         :19.97; 1000/y2; S0 = 0; 
BK.é¨¨                             :18.68; U/S*0.237; 
A4*0M0*5N.O¨¨                      :11.25; if (k13-k17)>P then 1000*(k12-k16)/(k10-k16) else 100*(k13-k17)/(k29-k17); 
A8*0M1*0N.é¨¨                      :15.50; if (k15-k17)>P then 1000*(k14-k16)/(k10-k16) else 100*(k15-k17)/(k29-k17); 
A0*4M0*1N.é¨¨                      :13.95; if (k19-k17)>P then 200*(k18-k16)/(k10-k16) else 20*(k19-k17)/(k29-k17); 
A1*0M0*1N.é¨¨                      :14.55; if (k21-k17)>P then 1000*(k20-k16)/(k10-k16) else 100*(k21-k17)/(k29-k17); 
A2*0M0*5N.é¨¨                      :15.75; if (k23-k17)>P then 1000*(k22-k16)/(k10-k16) else 100*(k23-k17)/(k29-k17); 
N0*5M2*0A.é¨¨                      :11.25; if (k25-k17)>P then 1000*(k24-k16)/(k10-k16) else 100*(k25-k17)/(k29-k17); 
N11*0M0*5A.é¨¨                     :13.25; if (k27-k17)>P then 200*(k26-k16)/(k10-k16) else 20*(k27-k17)/(k29-k17); 
PS.                                :11.25; k_acp3 / 6; 
R.é¨¨                              :6.00; (k11-k16)/(k10-k16)*Kp; Kp = 0.68; 
TOK.Ä                              :0.00; 0.7-(k1-k30)/(k32/2); 
Nat.                               :0.00; k_tense; 
Speed.                             :0.00; k_speed; 
Nat.                               :0.00; k_tense; 
~PARAMETER INFORMATION
~Other information block
PLT.                      ä1Ä-723-å:ç†ß¢†≠®• Ø´†≠Ë•‚†
IPRB.                       ä1Ä-723:à¨Ô Ø‡®°Æ‡†
NPRB.                            15:çÆ¨•‡ Ø‡®°Æ‡†
R_TYPE.                      VULCAN:í®Ø ‡•£®·‚‡†‚Æ‡†
POW_VER.                       0x80:Ç•‡·®Ô Ø´†‚Î Ø®‚†≠®Ô
GAIN_1.                        1.49:ì·®´•≠®• ¸1
GAIN_2.                           0:ì·®´•≠®• ¸2
GAIN_3.                           0:ì·®´•≠®• ¸3
PRG_1+.                           5:èÆ‡Æ£ 1+
PRG_1-.                        2.35:èÆ‡Æ£ 1-
PRG_2+.                           5:èÆ‡Æ£ 2+
PRG_2-.                           5:èÆ‡Æ£ 2-
PRG_3+.                           5:èÆ‡Æ£ 3+
PRG_3-.                           5:èÆ‡Æ£ 3-
LAST_CMD.                          :èÆ·´•§≠ÔÔ ™Æ¨†≠§†
RELE.                      18640550:ëÆ·‚ÆÔ≠®• ‡•´•
DRV.    kis1.bit (07.11.2001  9:29):Ñ‡†©¢•‡
SkIn1M.                    99.30181:à¨Ø„´Ï·Æ¢ òä ≠† 1 ¨•‚‡
REG_SN.                        -999:¸ ‡•£®·‚‡†‚Æ‡†
~ASCII Log Data
# ...
237.200       222316.688       0.000   -1152.259     235.202       4.889      69.547      17.840      17.903       1.648       6.053      12.770      16.855       7.069      15.639       0.093       0.399       9.973    1152.259       9.973
237.300       222316.250       0.000   -1133.459     230.205       4.588      52.362      18.305      17.864       1.754       6.526      13.360      16.099       7.008      13.917       0.092       0.400      10.052    1133.459      10.052
237.400       222315.969       0.000   -1131.270     220.493       4.379      21.222      18.300      17.662       1.821       6.877      13.722      15.402       7.007      17.933       0.093       0.399      10.169    1131.270      10.169
237.500       222315.656       0.000   -1128.885     206.967       4.246       8.934      17.959      17.546       1.718       6.541      13.816      14.933       6.983      24.056       0.093       0.400      14.745    1128.885      14.745
237.600       222315.375       0.000   -1142.313     194.133       4.164       6.146      17.409      16.313       1.610       6.126      13.666      14.576       7.026      57.800       0.093       0.398      10.006    1142.313      10.006
237.700       222315.063       0.000   -1127.772     187.060       4.098       5.529      16.461      15.555       1.534       5.916      13.379      14.330       7.067      70.762       0.093       0.399      10.495    1127.772      10.495
237.800       222314.781       0.000   -1133.418     193.210       4.007       5.311      15.553      14.744       1.477       5.763      13.043      14.315       7.108      18.500       0.092       0.398      13.982    1133.418      13.982
237.900       222314.438       0.000   -1175.961     204.555       3.961       4.942      14.806      13.979       1.385       5.499      12.035      14.509       7.170     -14.048       0.092       0.398      16.092    1175.961      16.092
238.000       222314.063       0.000   -1196.652     217.938       4.088       4.636      13.916      13.149       1.311       5.257      11.552      14.839       7.253     -10.381       0.092       0.400      12.085    1196.652      12.085
238.100       222313.797       0.000   -1174.879     228.372       4.200       4.571      13.162      12.567       1.258       5.013      11.096      15.196       7.338       9.111       0.092       0.399      10.169    1174.879      10.169
238.200       222313.469       0.000   -1160.426     235.514       4.293       4.468      12.593      11.934       1.178       4.674      10.790      15.693       7.466      17.722       0.091       0.399      14.745    1160.426      14.745
238.300       222313.188       0.000   -1150.612     240.178       4.402       4.570      11.980      11.418       1.085       4.326      10.517      16.291       7.575      -5.292       0.093       0.398       9.973    1150.612       9.973
238.400       222312.844       0.000   -1156.163     243.996       4.441       5.588      11.495      11.087       1.111       4.423      10.291      16.855       7.718       2.300       0.094       0.399      15.332    1156.163      15.332
238.500       222312.547       0.000   -1155.672     249.554       4.484       6.444      11.212      10.760       1.098       4.302      10.164      17.283       7.859      25.194       0.094       0.398       9.973    1155.672       9.973
238.600       222312.266       0.000   -1102.515     252.433       4.556       6.310      10.994      10.492       1.073       4.124      10.159      17.758       8.009      55.833       0.095       0.398      10.169    1102.515      10.169
238.700       222311.984       0.000   -1117.839     244.631       4.595       6.350      10.831      10.380       1.053       4.028      10.132      18.063       8.109      10.889       0.095       0.397      10.169    1117.839      10.169
238.800       222311.688       0.000   -1141.653     238.103       4.612       6.889      10.710      10.310       1.028       3.898      10.138      18.354       8.227       0.639       0.095       0.398       9.973    1141.653       9.973
238.900       222311.297       0.000   -1148.350     232.914       4.685       8.525      10.600      10.294       1.057       3.965      10.202      18.560       8.333       2.233       0.095       0.397      10.169    1148.350      10.169
239.000       222310.953       0.000   -1138.395     227.149       4.999       9.986      10.572      10.276       1.084       4.003      10.354      18.754       8.440      -2.500       0.094       0.398      10.169    1138.395      10.169
239.100       222310.703       0.000   -1141.151     225.157       5.614       9.899      10.655      10.389       1.089       4.004      10.601      19.018       8.527      30.690       0.094       0.398      10.169    1141.151      10.169
239.200       222310.375       0.000   -1169.280     223.033       6.377       9.858      10.921      10.412       1.083       4.003      10.875      19.316       8.637      31.917       0.095       0.398      10.104    1169.280      10.104
239.300       222310.063       0.000   -1215.123     219.497       7.078      11.554      11.180      10.551       1.139       4.173      11.180      19.519       8.727      -0.800       0.095       0.400      10.113    1215.123      10.113
239.400       222309.672       0.000   -1192.066     217.619       7.437      15.402      11.585      10.687       1.203       4.408      11.471      19.682       8.847      21.833       0.095       0.398      10.169    1192.066      10.169
239.500       222309.344       0.000   -1193.329     216.806       7.431      17.205      12.037      10.685       1.241       4.569      11.793      19.706       8.884      25.800       0.095       0.398      10.202    1193.329      10.202
239.600       222309.063       0.000   -1157.507     213.470       7.239      17.447      12.447      10.809       1.259       4.649      12.049      19.542       8.960      11.167       0.096       0.398      14.341    1157.507      14.341
239.700       222308.891       0.000   -1146.774     200.042       7.039      18.855      12.825      10.831       1.300       4.811      12.180      19.225       8.992      26.400       0.095       0.399      19.800    1146.774      19.800
239.800       222308.484       0.000   -1153.586     178.141       7.023      19.006      13.068      10.894       1.335       4.972      12.219      18.855       9.024      27.611       0.096       0.400      10.169    1153.586      10.169
239.900       222308.203       0.000   -1155.498     156.806       7.101      16.877      13.318      10.893       1.366       5.095      12.230      18.573       9.058      32.333       0.096       0.398      10.169    1155.498      10.169
240.000       222307.859       0.000   -1151.623     141.287       7.255      13.304      13.667      10.857       1.374       5.134      12.203      18.407       9.083      40.146       0.095       0.399      10.234    1151.623      10.234
240.100       222307.547       0.000   -1144.593     134.468       7.386      10.063      13.899      10.856       1.334       5.031      12.179      18.347       9.118     -35.917       0.095       0.398      16.505    1144.593      16.505
240.200       222307.266       0.000   -1133.048     134.573       7.408      10.162      14.060      10.864       1.351       5.141      12.139      18.354       9.104       8.433       0.094       0.399      18.741    1133.048      18.741
240.300       222306.953       0.000   -1160.631     138.150       7.257      12.044      14.256      10.850       1.356       5.198      12.149      18.445       9.132      -2.633       0.093       0.398      15.410    1160.631      15.410
240.400       222306.672       0.000   -1166.655     142.068       6.994      12.562      14.537      10.929       1.359       5.255      12.292      18.500       9.133       8.944       0.093       0.398      13.624    1166.655      13.624
240.500       222306.391       0.000   -1136.755     142.386       6.847      13.209      14.931      10.932       1.354       5.312      12.471      18.457       9.131       7.667       0.093       0.399      11.473    1136.755      11.473
