~VERSION INFORMATION
VERS.                           2.0:CWLS LOG ASCII STANDARD -VERSION 2.0
WRAP.                            NO:ONE LINE PER DEPTH STEP
~WELL INFORMATION
STRT.M                       128.40:ëíÄêí
STOP.M                       901.90:ëíéè
STEP.M                         0.10:òÄÉ
NULL.                       -999.25:NULL  VALUES
OPER.              å†™†‡•¢·™®© Ö.Ä.:éèÖêÄíéê
WELL.                           169:ëäÇÄÜàçÄ
KUST.                              :äìëí
FLD.                               :èãéôÄÑú
MEST.                   Ä™·Ó‚®≠·™Æ•:åÖëíéêéÜÑÖçàÖ
COMM.                              :äéååÖçíÄêàâ
DIRECTION.                   èéÑöå:çÄèêÄÇãÖçàÖ áÄèàëà
DATE.                    16/10/2024:ÑÄíÄ êÖÉàëíêÄñàà
TIME.                      21-46-13:ÇêÖåü êÖÉàëíêÄñàà
DATO.                    16/10/2024:ÑÄíÄ éäéçóÄçàü êÖÉàëíêÄñàà
TIMO.                      22-29-03:ÇêÖåü éäéçóÄçàü êÖÉàëíêÄñàà
ZABOY.                          897:É´„°®≠† ß†°ÆÔ
SV.¨/Á                        -1094:ë‡•§≠ÔÔ ·™Æ‡Æ·‚Ï
~CURVE INFORMATION
DEPT.M                             :
TIME.                              :
MAPO.                              :
SPD .M/H                           :
IK.¨ë¨/¨                           :20.67; 100*(k2-k3)/(k4-k3)+S0; S0 = 0; 
IK_Om.Om*m                         :19.97; 1000/y2; S0 = 0; 
BK.é¨¨                             :18.68; U/S*0.237; 
A4*0M0*5N.O¨¨                      :11.25; if (k13-k17)>P then 1000*(k12-k16)/(k10-k16) else 100*(k13-k17)/(k29-k17); 
A8*0M1*0N.é¨¨                      :15.50; if (k15-k17)>P then 1000*(k14-k16)/(k10-k16) else 100*(k15-k17)/(k29-k17); 
A0*4M0*1N.é¨¨                      :13.95; if (k19-k17)>P then 200*(k18-k16)/(k10-k16) else 20*(k19-k17)/(k29-k17); 
A1*0M0*1N.é¨¨                      :14.55; if (k21-k17)>P then 1000*(k20-k16)/(k10-k16) else 100*(k21-k17)/(k29-k17); 
A2*0M0*5N.é¨¨                      :15.75; if (k23-k17)>P then 1000*(k22-k16)/(k10-k16) else 100*(k23-k17)/(k29-k17); 
N0*5M2*0A.é¨¨                      :11.25; if (k25-k17)>P then 1000*(k24-k16)/(k10-k16) else 100*(k25-k17)/(k29-k17); 
N11*0M0*5A.é¨¨                     :13.25; if (k27-k17)>P then 200*(k26-k16)/(k10-k16) else 20*(k27-k17)/(k29-k17); 
PS.                                :11.25; k_acp3 / 6; 
R.é¨¨                              :6.00; (k11-k16)/(k10-k16)*Kp; Kp = 0.68; 
TOK.Ä                              :0.00; 0.7-(k1-k30)/(k32/2); 
Nat.                               :0.00; k_tense; 
Speed.                             :0.00; k_speed; 
Nat.                               :0.00; k_tense; 
~PARAMETER INFORMATION
~Other information block
PLT.                      ä1Ä-723-å:ç†ß¢†≠®• Ø´†≠Ë•‚†
IPRB.                       ä1Ä-723:à¨Ô Ø‡®°Æ‡†
NPRB.                            15:çÆ¨•‡ Ø‡®°Æ‡†
R_TYPE.                      VULCAN:í®Ø ‡•£®·‚‡†‚Æ‡†
POW_VER.                       0x80:Ç•‡·®Ô Ø´†‚Î Ø®‚†≠®Ô
GAIN_1.                        1.49:ì·®´•≠®• ¸1
GAIN_2.                           0:ì·®´•≠®• ¸2
GAIN_3.                           0:ì·®´•≠®• ¸3
PRG_1+.                           5:èÆ‡Æ£ 1+
PRG_1-.                        2.35:èÆ‡Æ£ 1-
PRG_2+.                           5:èÆ‡Æ£ 2+
PRG_2-.                           5:èÆ‡Æ£ 2-
PRG_3+.                           5:èÆ‡Æ£ 3+
PRG_3-.                           5:èÆ‡Æ£ 3-
LAST_CMD.                          :èÆ·´•§≠ÔÔ ™Æ¨†≠§†
RELE.                      18640550:ëÆ·‚ÆÔ≠®• ‡•´•
DRV.    kis1.bit (07.11.2001  9:29):Ñ‡†©¢•‡
SkIn1M.                    99.30181:à¨Ø„´Ï·Æ¢ òä ≠† 1 ¨•‚‡
REG_SN.                        -999:¸ ‡•£®·‚‡†‚Æ‡†
~ASCII Log Data
# ...
638.400       220203.375       0.000   -1125.151      98.121      11.166     606.938      24.632      10.474       1.835       8.464      25.079      74.132      33.816     108.500       0.142       0.397      73.569    1125.151      73.569
638.500       220203.063       0.000   -1137.972      97.599      11.405     618.903      25.969      10.953       1.881       8.651      25.943      73.029      34.183     128.694       0.142       0.398      75.988    1137.972      75.988
638.600       220202.734       0.000   -1129.480      96.347      11.591     327.862      27.371      11.485       1.920       8.820      26.953      72.088      34.554     180.778       0.142       0.397      77.473    1129.480      77.473
638.700       220202.375       0.000   -1122.211      94.906      11.872     349.947      28.884      12.006       1.982       9.111      27.942      71.205      34.918     177.967       0.142       0.396      78.288    1122.211      78.288
638.800       220202.063       0.000   -1054.620      93.222      12.021     485.781      30.498      12.512       2.039       9.410      28.918      70.277      35.300     154.333       0.142       0.396      78.549    1054.620      78.549
638.900       220201.766       0.000   -1077.209      92.150      12.085     584.216      32.808      12.915       2.082       9.605      29.949      69.164      35.639     147.854       0.143       0.395      73.803    1077.209      73.803
639.000       220201.484       0.000   -1114.696      90.757      11.995     616.799      34.987      13.440       2.129       9.855      30.934      67.970      35.933     134.900       0.143       0.396      73.603    1114.696      73.603
639.100       220201.047       0.000   -1176.307      89.562      11.820     498.215      36.939      13.926       2.182      10.106      31.890      66.858      36.239     110.267       0.143       0.396      76.268    1176.307      76.268
639.200       220200.766       0.000   -1165.427      87.683      11.586     344.430      38.598      14.391       2.226      10.333      32.542      65.845      36.544      66.028       0.143       0.398      78.380    1165.427      78.380
639.300       220200.484       0.000   -1163.035      86.273      11.398     203.184      40.351      14.981       2.291      10.620      33.384      64.908      36.796     113.533       0.144       0.396      75.251    1163.035      75.251
639.400       220200.172       0.000   -1111.859      84.230      11.231     136.149      42.071      15.557       2.255      10.565      34.023      63.991      37.074     134.190       0.145       0.396      76.826    1111.859      76.826
639.500       220159.813       0.000   -1121.678      83.185      11.106     129.592      43.760      16.202       2.300      10.808      34.533      63.285      37.349     112.333       0.145       0.395      74.468    1121.678      74.468
639.600       220159.547       0.000   -1092.842      82.748      11.094     126.924      45.383      16.990       2.301      10.844      35.099      62.740      37.578     130.762       0.145       0.395      73.530    1092.842      73.530
639.700       220159.172       0.000   -1124.739      83.368      11.116     129.830      47.712      17.738       2.335      11.039      35.743      62.020      37.849      82.762       0.145       0.395      75.821    1124.739      75.821
639.800       220158.797       0.000   -1094.940      84.603      11.173     170.147      49.585      18.321       2.362      11.192      36.386      61.489      38.051      78.417       0.145       0.396      73.970    1094.940      73.970
639.900       220158.578       0.000   -1113.611      86.311      11.232     227.697      51.548      19.000       2.403      11.454      37.367      60.814      38.236     109.429       0.146       0.396      73.530    1113.611      73.530
640.000       220158.234       0.000   -1070.617      87.735      11.276     283.161      54.359      19.775       2.435      11.697      38.401      59.743      38.449      98.190       0.146       0.397      76.128    1070.617      76.128
640.100       220157.859       0.000   -1078.878      89.040      11.244     408.911      56.907      20.658       2.487      12.002      39.300      58.612      38.596      78.500       0.146       0.397      76.932    1078.878      76.932
640.200       220157.578       0.000   -1072.646      90.042      11.191     516.543      59.590      21.837       2.538      12.295      40.262      57.561      38.730      74.095       0.146       0.395      76.137    1072.646      76.137
640.300       220157.266       0.000   -1108.863      90.141      11.114     528.110      62.619      23.069       2.583      12.506      41.239      56.576      38.880      72.600       0.146       0.396      74.679    1108.863      74.679
640.400       220156.859       0.000   -1138.072      89.963      10.986     491.954      65.167      24.184       2.629      12.727      42.228      55.748      39.003      64.733       0.146       0.397      76.972    1138.072      76.972
640.500       220156.547       0.000   -1153.844      89.504      10.824     482.802      68.065      25.553       2.669      12.983      43.422      54.925      39.073      47.896       0.147       0.396      73.758    1153.844      73.758
640.600       220156.266       0.000   -1147.845      89.028      10.764     487.773      71.368      26.936       2.705      13.170      44.523      54.046      39.136      35.000       0.147       0.396      75.583    1147.845      75.583
640.700       220155.922       0.000   -1145.270      88.680      10.680     480.148      73.954      28.375       2.753      13.410      45.444      53.328      39.174      68.267       0.147       0.396      73.686    1145.270      73.686
640.800       220155.688       0.000   -1108.777      88.935      10.627     493.272      76.656      30.040       2.790      13.636      46.439      52.690      39.190      41.639       0.147       0.395      75.821    1108.777      75.821
640.900       220155.266       0.000   -1103.633      89.358      10.627     593.518      79.344      31.711       2.819      13.838      47.421      51.999      39.179      50.639       0.148       0.394      75.225    1103.633      75.225
641.000       220154.953       0.000   -1073.743      89.979      10.675     679.878      82.298      33.609       2.867      14.109      48.407      51.337      39.132      65.433       0.147       0.395      78.549    1073.743      78.549
641.100       220154.688       0.000   -1109.403      91.026      10.735     670.424      85.699      35.399       2.915      14.316      49.556      50.547      39.060      32.458       0.147       0.396      78.908    1109.403      78.908
641.200       220154.297       0.000   -1112.465      92.384      10.796     562.001      89.242      37.025       2.958      14.556      50.711      49.762      38.969      53.233       0.147       0.396      78.083    1112.465      78.083
641.300       220153.953       0.000   -1099.667      92.898      10.823     439.173      92.108      39.028       2.996      14.823      51.952      49.164      38.842      52.583       0.145       0.396      79.983    1099.667      79.983
641.400       220153.688       0.000   -1125.433      93.633      10.777     389.965      94.806      41.129       3.027      15.009      53.058      48.586      38.667      27.600       0.143       0.395      79.462    1125.433      79.462
641.500       220153.375       0.000   -1116.073      94.096      10.681     406.524      97.472      43.056       3.063      15.203      53.918      47.976      38.457      55.056       0.141       0.394      76.333    1116.073      76.333
641.600       220153.047       0.000   -1097.019      94.103      10.545     415.304     101.314      45.425       3.102      15.424      54.845      47.251      38.224      44.521       0.139       0.395      79.313    1097.019      79.313
641.700       220152.688       0.000   -1083.116      93.678      10.491     395.351     104.823      47.960       3.136      15.633      55.825      46.522      37.995      42.300       0.138       0.394      80.733    1083.116      80.733
