~VERSION INFORMATION
VERS.                           2.0:CWLS LOG ASCII STANDARD -VERSION 2.0
WRAP.                            NO:ONE LINE PER DEPTH STEP
~WELL INFORMATION
STRT.M                       128.40:ëíÄêí
STOP.M                       901.90:ëíéè
STEP.M                         0.10:òÄÉ
NULL.                       -999.25:NULL  VALUES
OPER.              å†™†‡•¢·™®© Ö.Ä.:éèÖêÄíéê
WELL.                           169:ëäÇÄÜàçÄ
KUST.                              :äìëí
FLD.                               :èãéôÄÑú
MEST.                   Ä™·Ó‚®≠·™Æ•:åÖëíéêéÜÑÖçàÖ
COMM.                              :äéååÖçíÄêàâ
DIRECTION.                   èéÑöå:çÄèêÄÇãÖçàÖ áÄèàëà
DATE.                    16/10/2024:ÑÄíÄ êÖÉàëíêÄñàà
TIME.                      21-46-13:ÇêÖåü êÖÉàëíêÄñàà
DATO.                    16/10/2024:ÑÄíÄ éäéçóÄçàü êÖÉàëíêÄñàà
TIMO.                      22-29-03:ÇêÖåü éäéçóÄçàü êÖÉàëíêÄñàà
ZABOY.                          897:É´„°®≠† ß†°ÆÔ
SV.¨/Á                        -1094:ë‡•§≠ÔÔ ·™Æ‡Æ·‚Ï
~CURVE INFORMATION
DEPT.M                             :
TIME.                              :
MAPO.                              :
SPD .M/H                           :
IK.¨ë¨/¨                           :20.67; 100*(k2-k3)/(k4-k3)+S0; S0 = 0; 
IK_Om.Om*m                         :19.97; 1000/y2; S0 = 0; 
BK.é¨¨                             :18.68; U/S*0.237; 
A4*0M0*5N.O¨¨                      :11.25; if (k13-k17)>P then 1000*(k12-k16)/(k10-k16) else 100*(k13-k17)/(k29-k17); 
A8*0M1*0N.é¨¨                      :15.50; if (k15-k17)>P then 1000*(k14-k16)/(k10-k16) else 100*(k15-k17)/(k29-k17); 
A0*4M0*1N.é¨¨                      :13.95; if (k19-k17)>P then 200*(k18-k16)/(k10-k16) else 20*(k19-k17)/(k29-k17); 
A1*0M0*1N.é¨¨                      :14.55; if (k21-k17)>P then 1000*(k20-k16)/(k10-k16) else 100*(k21-k17)/(k29-k17); 
A2*0M0*5N.é¨¨                      :15.75; if (k23-k17)>P then 1000*(k22-k16)/(k10-k16) else 100*(k23-k17)/(k29-k17); 
N0*5M2*0A.é¨¨                      :11.25; if (k25-k17)>P then 1000*(k24-k16)/(k10-k16) else 100*(k25-k17)/(k29-k17); 
N11*0M0*5A.é¨¨                     :13.25; if (k27-k17)>P then 200*(k26-k16)/(k10-k16) else 20*(k27-k17)/(k29-k17); 
PS.                                :11.25; k_acp3 / 6; 
R.é¨¨                              :6.00; (k11-k16)/(k10-k16)*Kp; Kp = 0.68; 
TOK.Ä                              :0.00; 0.7-(k1-k30)/(k32/2); 
Nat.                               :0.00; k_tense; 
Speed.                             :0.00; k_speed; 
Nat.                               :0.00; k_tense; 
~PARAMETER INFORMATION
~Other information block
PLT.                      ä1Ä-723-å:ç†ß¢†≠®• Ø´†≠Ë•‚†
IPRB.                       ä1Ä-723:à¨Ô Ø‡®°Æ‡†
NPRB.                            15:çÆ¨•‡ Ø‡®°Æ‡†
R_TYPE.                      VULCAN:í®Ø ‡•£®·‚‡†‚Æ‡†
POW_VER.                       0x80:Ç•‡·®Ô Ø´†‚Î Ø®‚†≠®Ô
GAIN_1.                        1.49:ì·®´•≠®• ¸1
GAIN_2.                           0:ì·®´•≠®• ¸2
GAIN_3.                           0:ì·®´•≠®• ¸3
PRG_1+.                           5:èÆ‡Æ£ 1+
PRG_1-.                        2.35:èÆ‡Æ£ 1-
PRG_2+.                           5:èÆ‡Æ£ 2+
PRG_2-.                           5:èÆ‡Æ£ 2-
PRG_3+.                           5:èÆ‡Æ£ 3+
PRG_3-.                           5:èÆ‡Æ£ 3-
LAST_CMD.                          :èÆ·´•§≠ÔÔ ™Æ¨†≠§†
RELE.                      18640550:ëÆ·‚ÆÔ≠®• ‡•´•
DRV.    kis1.bit (07.11.2001  9:29):Ñ‡†©¢•‡
SkIn1M.                    99.30181:à¨Ø„´Ï·Æ¢ òä ≠† 1 ¨•‚‡
REG_SN.                        -999:¸ ‡•£®·‚‡†‚Æ‡†
~ASCII Log Data
# ...
791.400       215344.984       0.000   -1153.813     111.784      10.000    1906.664     101.635     336.592       1.978      10.588      45.806      46.988      56.581     199.881       0.097       0.393     102.277    1153.813     102.277
791.500       215344.703       0.000   -1148.229     109.248      10.000    1898.883     101.914     338.778       1.979      10.608      45.950      46.729      56.355     213.000       0.096       0.394     104.584    1148.229     104.584
791.600       215344.438       0.000   -1066.722     106.976       9.995    1892.365     102.189     340.912       1.988      10.633      46.094      46.498      56.165     175.389       0.096       0.393     105.489    1066.722     105.489
791.700       215344.047       0.000    -986.042     105.167       9.984    1890.095     102.494     342.940       1.993      10.697      46.237      46.249      55.910     193.119       0.097       0.390     105.536     986.042     105.536
791.800       215343.734       0.000    -983.030     103.886       9.983    1874.794     102.908     345.099       2.002      10.697      46.451      46.003      55.647     192.167       0.097       0.391     101.201     983.030     101.201
791.900       215343.422       1.000   -1024.788     102.402      10.007    1850.614     103.393     347.282       2.005      10.730      46.658      45.808      55.428     192.778       0.097       0.391     102.042    1024.788     102.042
792.000       215343.094       1.000   -1063.932     101.169      10.031    1810.266     103.901     349.471       2.014      10.800      46.890      45.654      55.197     219.733       0.096       0.394     102.472    1063.932     102.472
792.100       215342.313       0.000   -1057.260     100.000       9.964    1769.771     104.492     351.551       2.028      10.878      47.152      45.512      55.001     179.500       0.096       0.392     102.211    1057.260     102.211
792.200       215342.016       0.000   -1080.829     100.000       9.815    1744.231     105.065     353.595       2.039      10.932      47.437      45.347      54.772     171.833       0.096       0.392     104.115    1080.829     104.115
792.300       215341.734       0.000   -1083.616     100.052       9.630    1730.433     105.628     355.747       2.051      10.995      47.661      45.193      54.504     198.056       0.096       0.392     102.081    1083.616     102.081
792.400       215341.391       0.000   -1117.167     100.157       9.403    1730.847     106.249     357.529       2.057      11.052      47.899      45.024      54.260     184.833       0.096       0.391     101.886    1117.167     101.886
792.500       215341.016       0.000   -1129.277     100.167       9.159    1712.539     106.729     359.150       2.065      11.069      48.093      44.842      54.025     180.639       0.096       0.393     103.998    1129.277     103.998
792.600       215340.734       0.000   -1133.334      99.930       8.924    1712.176     107.157     360.865       2.074      11.123      48.255      44.677      53.775     185.967       0.096       0.393     104.558    1133.334     104.558
792.700       215340.422       0.000   -1146.767      99.687       8.662    1721.885     107.658     362.383       2.081      11.162      48.417      44.455      53.556     200.452       0.096       0.391     103.181    1146.767     103.181
792.800       215339.984       0.000   -1140.681     100.365       8.371    1729.768     108.077     363.833       2.084      11.189      48.558      44.253      53.316     204.500       0.096       0.392     102.003    1140.681     102.003
792.900       215339.703       0.000   -1126.210     101.880       8.213    1715.152     108.465     365.492       2.093      11.206      48.727      44.071      53.045     169.500       0.096       0.392     102.114    1126.210     102.114
793.000       215339.422       0.000   -1085.055     103.840       8.122    1699.219     108.937     367.184       2.103      11.272      48.896      43.871      52.837     194.604       0.096       0.394     102.309    1085.055     102.309
793.100       215339.047       0.000   -1100.580     106.349       8.089    1671.299     109.354     368.417       2.111      11.359      49.076      43.667      52.619     209.200       0.096       0.392     105.210    1100.580     105.210
793.200       215338.828       0.000   -1110.532     109.186       8.177    1571.688     109.855     369.679       2.126      11.374      49.315      43.477      52.352     179.139       0.096       0.393     103.310    1110.532     103.310
793.300       215338.422       0.000   -1129.362     112.056       8.454    1260.269     110.242     370.795       2.128      11.393      49.525      43.360      52.120     208.167       0.097       0.394     101.038    1129.362     101.038
793.400       215338.109       0.000   -1142.258     115.449       8.928    1115.068     110.880     371.754       2.139      11.485      49.665      42.964      51.882     169.033       0.096       0.392     101.768    1142.258     101.768
793.500       215337.828       0.000   -1121.703     119.465       9.485    1125.419     111.179     372.494       2.145      11.497      49.783      42.779      51.632     175.167       0.096       0.393     101.913    1121.703     101.913
793.600       215337.453       0.000   -1085.224     121.764      10.224    1057.076     111.439     373.255       2.140      11.472      49.887      42.584      51.419     186.881       0.095       0.393     101.997    1085.224     101.997
793.700       215337.109       0.000   -1092.517     123.121      11.166     956.901     111.528     373.792       2.150      11.535      49.915      42.281      51.172     162.944       0.095       0.392     102.198    1092.517     102.198
793.800       215336.828       0.000   -1123.541     123.631      12.213     864.742     111.591     374.436       2.151      11.535      49.919      42.036      50.903     185.667       0.094       0.393     100.158    1123.541     100.158
793.900       215336.516       0.000   -1128.979     122.296      12.739     853.120     111.737     374.181       2.148      11.495      49.948      41.801      50.659     191.700       0.095       0.395      98.203    1128.979      98.203
794.000       215336.188       0.000   -1166.490     118.288      12.902     870.575     111.811     373.590       2.149      11.512      49.960      41.546      50.444     214.452       0.096       0.394      99.259    1166.490      99.259
794.100       215335.828       0.000   -1134.883     112.004      12.691     769.475     111.963     373.051       2.152      11.524      50.004      41.341      50.226     195.389       0.095       0.394      99.409    1134.883      99.409
794.200       215335.516       0.000   -1135.608     105.428      11.833     533.321     111.735     372.031       2.162      11.574      49.935      41.150      49.994     179.111       0.095       0.394     101.925    1135.608     101.925
794.300       215335.203       0.000   -1105.061      97.808      10.621     319.886     111.454     370.416       2.176      11.611      49.750      40.969      49.758     193.167       0.095       0.394     101.429    1105.061     101.429
794.400       215334.938       0.000   -1073.562      89.562       9.948     262.176     111.066     369.122       2.152      11.503      49.536      40.864      49.500     173.533       0.095       0.395     102.342    1073.562     102.342
794.500       215334.594       0.000   -1095.153      81.879       9.673     255.972     110.476     367.957       2.123      11.321      49.205      40.724      49.264     172.278       0.096       0.395     104.102    1095.153     104.102
794.600       215334.266       0.000   -1113.628      78.497       9.648     213.892     108.884     366.955       2.115      11.252      48.632      40.674      49.050     172.708       0.095       0.394     102.416    1113.628     102.416
794.700       215333.906       0.000   -1121.759      77.505      10.034     144.528     108.021     365.995       2.115      11.264      48.294      41.034      48.843     138.000       0.095       0.394     102.277    1121.759     102.277
