~VERSION INFORMATION
VERS.                           2.0:CWLS LOG ASCII STANDARD -VERSION 2.0
WRAP.                            NO:ONE LINE PER DEPTH STEP
~WELL INFORMATION
STRT.M                       128.40:ëíÄêí
STOP.M                       901.90:ëíéè
STEP.M                         0.10:òÄÉ
NULL.                       -999.25:NULL  VALUES
OPER.              å†™†‡•¢·™®© Ö.Ä.:éèÖêÄíéê
WELL.                           169:ëäÇÄÜàçÄ
KUST.                              :äìëí
FLD.                               :èãéôÄÑú
MEST.                   Ä™·Ó‚®≠·™Æ•:åÖëíéêéÜÑÖçàÖ
COMM.                              :äéååÖçíÄêàâ
DIRECTION.                   èéÑöå:çÄèêÄÇãÖçàÖ áÄèàëà
DATE.                    16/10/2024:ÑÄíÄ êÖÉàëíêÄñàà
TIME.                      21-46-13:ÇêÖåü êÖÉàëíêÄñàà
DATO.                    16/10/2024:ÑÄíÄ éäéçóÄçàü êÖÉàëíêÄñàà
TIMO.                      22-29-03:ÇêÖåü éäéçóÄçàü êÖÉàëíêÄñàà
ZABOY.                          897:É´„°®≠† ß†°ÆÔ
SV.¨/Á                        -1094:ë‡•§≠ÔÔ ·™Æ‡Æ·‚Ï
~CURVE INFORMATION
DEPT.M                             :
TIME.                              :
MAPO.                              :
SPD .M/H                           :
IK.¨ë¨/¨                           :20.67; 100*(k2-k3)/(k4-k3)+S0; S0 = 0; 
IK_Om.Om*m                         :19.97; 1000/y2; S0 = 0; 
BK.é¨¨                             :18.68; U/S*0.237; 
A4*0M0*5N.O¨¨                      :11.25; if (k13-k17)>P then 1000*(k12-k16)/(k10-k16) else 100*(k13-k17)/(k29-k17); 
A8*0M1*0N.é¨¨                      :15.50; if (k15-k17)>P then 1000*(k14-k16)/(k10-k16) else 100*(k15-k17)/(k29-k17); 
A0*4M0*1N.é¨¨                      :13.95; if (k19-k17)>P then 200*(k18-k16)/(k10-k16) else 20*(k19-k17)/(k29-k17); 
A1*0M0*1N.é¨¨                      :14.55; if (k21-k17)>P then 1000*(k20-k16)/(k10-k16) else 100*(k21-k17)/(k29-k17); 
A2*0M0*5N.é¨¨                      :15.75; if (k23-k17)>P then 1000*(k22-k16)/(k10-k16) else 100*(k23-k17)/(k29-k17); 
N0*5M2*0A.é¨¨                      :11.25; if (k25-k17)>P then 1000*(k24-k16)/(k10-k16) else 100*(k25-k17)/(k29-k17); 
N11*0M0*5A.é¨¨                     :13.25; if (k27-k17)>P then 200*(k26-k16)/(k10-k16) else 20*(k27-k17)/(k29-k17); 
PS.                                :11.25; k_acp3 / 6; 
R.é¨¨                              :6.00; (k11-k16)/(k10-k16)*Kp; Kp = 0.68; 
TOK.Ä                              :0.00; 0.7-(k1-k30)/(k32/2); 
Nat.                               :0.00; k_tense; 
Speed.                             :0.00; k_speed; 
Nat.                               :0.00; k_tense; 
~PARAMETER INFORMATION
~Other information block
PLT.                      ä1Ä-723-å:ç†ß¢†≠®• Ø´†≠Ë•‚†
IPRB.                       ä1Ä-723:à¨Ô Ø‡®°Æ‡†
NPRB.                            15:çÆ¨•‡ Ø‡®°Æ‡†
R_TYPE.                      VULCAN:í®Ø ‡•£®·‚‡†‚Æ‡†
POW_VER.                       0x80:Ç•‡·®Ô Ø´†‚Î Ø®‚†≠®Ô
GAIN_1.                        1.49:ì·®´•≠®• ¸1
GAIN_2.                           0:ì·®´•≠®• ¸2
GAIN_3.                           0:ì·®´•≠®• ¸3
PRG_1+.                           5:èÆ‡Æ£ 1+
PRG_1-.                        2.35:èÆ‡Æ£ 1-
PRG_2+.                           5:èÆ‡Æ£ 2+
PRG_2-.                           5:èÆ‡Æ£ 2-
PRG_3+.                           5:èÆ‡Æ£ 3+
PRG_3-.                           5:èÆ‡Æ£ 3-
LAST_CMD.                          :èÆ·´•§≠ÔÔ ™Æ¨†≠§†
RELE.                      18640550:ëÆ·‚ÆÔ≠®• ‡•´•
DRV.    kis1.bit (07.11.2001  9:29):Ñ‡†©¢•‡
SkIn1M.                    99.30181:à¨Ø„´Ï·Æ¢ òä ≠† 1 ¨•‚‡
REG_SN.                        -999:¸ ‡•£®·‚‡†‚Æ‡†
~ASCII Log Data
# ...
390.200       221516.344       0.000   -1151.582     215.925       5.700     124.186      26.830      16.860       0.379       1.769       9.019      10.582      19.228     -92.722       0.071       0.398      38.838    1151.582      38.838
390.300       221516.063       0.000   -1184.387     181.224      11.515     137.016      26.929      17.747       0.342       1.752       8.769      10.438      19.204    -100.633       0.070       0.398      37.645    1184.387      37.645
390.400       221515.625       0.000   -1193.526     135.393      36.651     157.167      25.565      18.124       0.418       2.156       8.389       9.816      19.137     -85.528       0.070       0.397      35.279    1193.526      35.279
390.500       221515.344       0.000   -1164.928     149.240      65.045     173.049      24.603      18.430       0.439       2.156       8.390       9.286      19.010    -102.976       0.070       0.398      37.677    1164.928      37.677
390.600       221515.047       0.000   -1157.969     213.679      19.371     175.128      24.656      18.397       0.417       2.059       8.430       9.125      18.905    -108.167       0.070       0.399      36.608    1157.969      36.608
390.700       221514.766       0.000   -1148.017     244.025       7.203     174.006      23.951      19.928       0.349       1.752       8.100       8.742      18.789     -67.944       0.073       0.398      37.482    1148.017      37.482
390.800       221514.438       0.000   -1149.319     243.239       4.540     176.272      22.645      21.767       0.359       1.692       7.751       8.105      18.666    -103.533       0.075       0.398      36.648    1149.319      36.648
390.900       221514.156       0.000   -1156.889     175.430       3.764     169.626      21.967      22.989       0.368       1.744       7.583       7.734      18.569    -126.083       0.072       0.397      36.038    1156.889      36.038
391.000       221513.797       0.000   -1131.664      86.845       3.716     159.716      22.556      24.386       0.346       1.623       8.126       7.903      18.485     -50.100       0.074       0.396      38.173    1131.664      38.173
391.100       221513.547       0.000   -1144.246      27.284       4.058     146.028      24.546      25.543       0.381       1.764       8.913       8.516      18.353     -24.000       0.072       0.398      37.417    1144.246      37.417
391.200       221513.234       0.000   -1133.470      15.374       3.945     141.209      26.353      27.665       0.489       2.345       9.520       8.989      18.201     -37.500       0.074       0.398      38.877    1133.470      38.877
391.300       221512.953       0.000   -1148.359      51.625       3.372     144.233      28.716      31.064       0.515       2.511      10.239       9.654      18.071     -72.095       0.077       0.398      38.688    1148.359      38.688
391.400       221512.625       0.000   -1166.321     138.827       3.766     147.376      29.881      34.421       0.499       2.415      10.401      10.001      17.908     -98.467       0.071       0.397      38.329    1166.321      38.329
391.500       221512.203       0.000   -1200.968     220.262       4.358     144.715      29.712      38.033       0.504       2.464      10.465       9.783      17.733    -126.778       0.070       0.398      38.994    1200.968      38.994
391.600       221511.953       0.000   -1109.101     265.671       5.414     173.112      31.706      42.135       0.442       2.149      11.305      10.243      17.601    -106.667       0.073       0.396      38.564    1109.101      38.564
391.700       221511.672       0.000   -1082.605     269.130       7.421     209.095      34.367      45.611       0.452       2.363      12.031      10.978      17.446     -69.786       0.079       0.398      39.372    1082.605      39.372
391.800       221511.344       0.000   -1078.113     246.436       8.393     214.228      36.831      50.614       0.730       3.746      12.718      11.494      17.352     -34.933       0.078       0.398      40.546    1078.113      40.546
391.900       221511.047       1.000   -1089.446     253.459       8.631     223.746      39.675      56.683       0.694       3.471      13.792      12.270      17.280     -26.750       0.080       0.398      40.732    1089.446      40.732
392.000       221510.672       1.000   -1131.220     296.541       8.533     240.382      42.259      60.381       0.678       3.456      14.637      12.996      17.126       0.767       0.073       0.398      39.894    1131.220      39.894
392.100       221510.047       0.000   -1129.482     265.566       3.471     252.783      44.209      66.776       0.705       3.617      15.003      13.497      16.918      -9.042       0.072       0.398      38.955    1129.482      38.955
392.200       221509.766       0.000   -1139.313     229.455       2.885     311.628      46.961      77.221       0.660       3.245      15.933      14.198      16.752      -4.028       0.074       0.398      38.818    1139.313      38.818
392.300       221509.453       0.000   -1150.178     184.696       2.901     304.700      45.904      85.383       0.840       4.107      15.433      13.730      16.505      50.033       0.081       0.396      41.784    1150.178      41.784
392.400       221509.109       0.000   -1155.832     134.759       3.985     244.072      44.277      97.294       0.914       4.804      15.039      12.980      16.334      75.500       0.073       0.397      44.118    1155.832      44.118
392.500       221508.828       0.000   -1173.188     119.140       8.383     285.657      46.872     110.977       0.596       2.997      16.755      13.439      16.314      73.433       0.074       0.399      36.821    1173.188      36.821
392.600       221508.453       0.000   -1144.417     115.863      25.784     429.127      52.095     121.882       0.592       2.981      18.073      14.916      16.323      44.944       0.075       0.397      37.026    1144.417      37.026
392.700       221508.141       0.000   -1108.789     117.191      26.383     406.504      55.883     133.481       0.893       4.682      19.645      15.872      16.353      -0.861       0.081       0.397      38.368    1108.789      38.368
392.800       221507.859       0.000   -1153.466     288.063      20.155     291.057      63.707     144.442       1.223       6.277      23.126      17.996      16.461     -32.367       0.079       0.397      40.425    1153.466      40.425
392.900       221507.516       0.000   -1160.696     346.646      11.176     221.279      70.934     151.805       1.311       6.943      25.128      20.172      16.525      -6.208       0.081       0.398      43.844    1160.696      43.844
393.000       221507.234       0.000   -1181.586     344.654       7.571     183.912      72.044     164.783       1.432       7.330      24.681      20.515      16.461      20.767       0.072       0.399      39.046    1181.586      39.046
393.100       221506.922       0.000   -1171.685     250.943       6.718     204.670      69.887     176.290       1.154       5.804      24.824      19.903      16.405      62.778       0.072       0.398      40.207    1171.685      40.207
393.200       221506.641       0.000   -1142.189     119.287       6.519     250.149      69.759     190.306       0.913       4.681      23.593      20.082      16.343      67.111       0.073       0.398      37.547    1142.189      37.547
393.300       221506.328       0.000   -1140.270      38.784       6.604     219.830      64.310     198.280       1.139       5.619      21.912      18.725      16.225      29.833       0.074       0.398      40.715    1140.270      40.715
393.400       221506.047       0.000   -1161.737      37.904       8.503     206.677      58.576     207.446       1.056       5.986      21.280      16.886      16.214      94.333       0.079       0.398      43.274    1161.737      43.274
393.500       221505.703       0.000   -1171.107      49.616      15.702     229.390      62.876     203.465       0.969       5.061      23.017      18.150      16.248     116.500       0.080       0.399      42.017    1171.107      42.017
