~VERSION INFORMATION SECTION
VERS.           2.0                           : CWLS LOG ASCII STANDARD - VERSION 2.0
WRAP.           NO                            : ONE LINE PER DEPTH STEP
~WELL INFORMATION SECTION
#MNEM.UNIT      VALUE/NAME                    : DESCRIPTION
#-----------------------------------------------------------------------------
STRT.M          3070.200                      : START DEPTH
STOP.M          3404.800                      : STOP DEPTH
STEP.M          0.200                         : STEP
NULL.           -999.250                      : NULL VALUE
COMP.           “‘ ¿Œ "—— "                   : COMPANY
WELL.           61/6                          : WELL
FLD.            Ã‡ÒÚÂ¸ÂÎ¸ÒÍÓÂ                : FIELD
LOC.                                          : LOCATION
CNTY.           Ã‡ÒÚÂ¸ÂÎ¸ÒÍÓÂ                : COUNTY
STAT.                                         : STATE
CTRY.                                         : COUNTRY
SRVC.           ”ÕÕ¡ ŒŒŒ "“Õ√-√ÛÔÔ"          : SERVICE COMPANY
DATE.           2025.08.16                    : LOG DATE
UWI.                                          : UNIQUE WELL ID
API.                                          : API NUMBER
~CURVE INFORMATION SECTION
#MNEM.UNITS     API CODES                     : DESCRIPTION OF MNEMONIC
#-----------------------------------------------------------------------------
DEPTH.M                                       : DEPTH
TVDSS.M                                       : TRUE VERTICAL DEPTH SUBSEA
ROP.M_H                                       : RATE OF PENETRATION
GR.API                                        : GAMMA RAY
P06H.OHMM                                     : PHASE SHIFT RESISTIVITY 0.6 METER SPACING AT 1.8 MHz
P10L.OHMM                                     : PHASE SHIFT RESISTIVITY 1.0 METER SPACING AT 400 KHz
RHO.GCC                                       : DENSITY
RHOIMG#.GCC                                   : RAW DENSITY IMAGE
RHOS01.GCC                                    : AZIMUTAL DENSITY 1
RHOS02.GCC                                    : AZIMUTAL DENSITY 2
RHOS03.GCC                                    : AZIMUTAL DENSITY 3
RHOS04.GCC                                    : AZIMUTAL DENSITY 4
RHOS05.GCC                                    : AZIMUTAL DENSITY 5
RHOS06.GCC                                    : AZIMUTAL DENSITY 6
RHOS07.GCC                                    : AZIMUTAL DENSITY 7
RHOS08.GCC                                    : AZIMUTAL DENSITY 8
RHOS09.GCC                                    : AZIMUTAL DENSITY 9
RHOS10.GCC                                    : AZIMUTAL DENSITY 10
RHOS11.GCC                                    : AZIMUTAL DENSITY 11
RHOS12.GCC                                    : AZIMUTAL DENSITY 12
RHOS13.GCC                                    : AZIMUTAL DENSITY 13
RHOS14.GCC                                    : AZIMUTAL DENSITY 14
RHOS15.GCC                                    : AZIMUTAL DENSITY 15
RHOS16.GCC                                    : AZIMUTAL DENSITY 16
WODCLS.PERCENT                                : HYDROGEN CONTENTS CALIBRATION FROM LINESTONE MATRIX
~PARAMETER INFORMATION SECTION
#-----------------------------------------------------------------------------
RTYPE.          √ , » , √√ , 2ÕÕ              : RESEARCH TYPE
DATASRC.        “—  Ó‚ÂÚ                     : DATA SOURCE
DHOLE.          146.00                        : HOLE DIAMETER
GROUP.          ÕÕ¡                           : GROUP NUMBER
ENG1.           ƒ‡Ì¸¯ËÌ Õ.¬.                  : NNB ENGINEER 1
ENG2.                                         : NNB ENGINEER 2
ENG3.                                         : NNB ENGINEER 3
TLMENG1.        «‡˚ÔÓ‚ –.–.                  : TELEMETRY ENGINEER 1
TLMENG2.        ÿ‡ÙË„ÛÎÎËÌ ƒ.».               : TELEMETRY ENGINEER 2
TLMENG3.                                      : TELEMETRY ENGINEER 3
PHONE.          +79172217478                  : PHONE NUMBER
EMAIL.          tng.nnb1@mail.ru              : EMAIL
ADDEMAIL.                                     : ADDITIONAL EMAIL
~A     DEPTH       TVDSS         ROP          GR        P06H        P10L         RHO     RHOIMG#      RHOS01      RHOS02      RHOS03      RHOS04      RHOS05      RHOS06      RHOS07      RHOS08      RHOS09      RHOS10      RHOS11      RHOS12      RHOS13      RHOS14      RHOS15      RHOS16      WODCLS
# ...
    3210.600    2591.319      10.009      57.155     303.952     339.677       2.670      18.236       2.649       2.659       2.670       2.681       2.691       2.695       2.698       2.702       2.705       2.705       2.705       2.705       2.705       2.691       2.677       2.663      12.321
    3210.800    2591.329      11.061      58.395     289.973     439.750       2.667      18.215       2.649       2.649       2.649       2.649       2.649       2.659       2.670       2.681       2.691       2.697       2.702       2.707       2.712       2.697       2.681       2.665      12.179
    3211.000    2591.338      11.556      59.142     289.023     367.250       2.670      18.401       2.663       2.663       2.663       2.663       2.663       2.674       2.684       2.695       2.705       2.698       2.691       2.684       2.677       2.674       2.670       2.666      12.255
    3211.200    2591.348       6.909      59.142     295.774     271.303       2.640      18.780       2.691       2.691       2.691       2.691       2.691       2.702       2.713       2.723       2.734       2.713       2.691       2.670       2.649       2.659       2.670       2.681      12.911
    3211.400    2591.357       5.953      59.142     306.971     283.159       2.614      18.101       2.635       2.635       2.635       2.635       2.635       2.659       2.684       2.709       2.734       2.720       2.705       2.691       2.677       2.666       2.656       2.645      13.893
    3211.600    2591.367       8.329      60.424     303.139     253.306       2.605      17.762       2.606       2.612       2.617       2.622       2.627       2.654       2.681       2.707       2.734       2.723       2.713       2.702       2.691       2.670       2.649       2.628      14.090
    3211.800    2591.376      14.097      62.990     294.311     220.498       2.608      14.765       2.648       2.652       2.655       2.659       2.663       2.680       2.698       2.716       2.733       2.723       2.712       2.702       2.691       2.680       2.670       2.659      13.500
    3212.000    2591.386      16.697      65.555     295.514     253.393       2.608       8.768       2.732       2.722       2.711       2.701       2.691       2.701       2.711       2.722       2.732       2.722       2.711       2.701       2.691       2.701       2.711       2.722      12.605
    3212.200    2591.396      14.733      66.446     296.717     286.288       2.608      20.358       2.620       2.631       2.641       2.652       2.663       2.687       2.712       2.737       2.761       2.751       2.740       2.730       2.719       2.694       2.670       2.645      12.846
    3212.400    2591.405      16.047      65.661     296.729     314.740       2.614      23.358       2.578       2.585       2.592       2.599       2.606       2.645       2.684       2.723       2.762       2.755       2.748       2.741       2.734       2.695       2.656       2.617      12.862
    3212.600    2591.415      17.392      66.846     295.551     325.417       2.624      17.768       2.606       2.585       2.564       2.542       2.521       2.574       2.627       2.681       2.734       2.734       2.734       2.734       2.734       2.702       2.670       2.638      12.370
    3212.800    2591.425      13.302      67.895     294.373     331.650       2.626      19.482       2.748       2.713       2.677       2.642       2.606       2.638       2.670       2.702       2.734       2.741       2.748       2.755       2.762       2.759       2.755       2.751      12.124
    3213.000    2591.434      16.493      67.014     293.195     337.883       2.626      19.267       2.734       2.713       2.691       2.670       2.649       2.663       2.677       2.691       2.705       2.716       2.727       2.737       2.748       2.744       2.741       2.737      12.080
    3213.200    2591.444      18.417      67.192     292.017     341.440       2.626      17.123       2.564       2.585       2.606       2.627       2.649       2.649       2.649       2.649       2.649       2.659       2.670       2.681       2.691       2.659       2.627       2.596      11.861
    3213.400    2591.454      13.455      68.963     290.839     342.321       2.626      18.485       2.677       2.691       2.705       2.720       2.734       2.713       2.691       2.670       2.649       2.652       2.656       2.659       2.663       2.666       2.670       2.674      11.861
    3213.600    2591.463      15.114      70.026     289.661     343.202       2.624      19.171       2.734       2.741       2.748       2.755       2.762       2.734       2.705       2.677       2.649       2.656       2.663       2.670       2.677       2.691       2.705       2.720      12.342
    3213.800    2591.473      15.011      70.026     288.483     344.083       2.624      19.181       2.734       2.734       2.734       2.734       2.734       2.713       2.691       2.670       2.649       2.670       2.691       2.713       2.734       2.734       2.734       2.734      13.392
    3214.000    2591.483      12.077      70.026     287.306     344.964       2.640      19.128       2.734       2.734       2.734       2.734       2.734       2.705       2.677       2.649       2.620       2.635       2.649       2.663       2.677       2.691       2.705       2.720      13.436
    3214.200    2591.493       9.837      71.660     289.574     345.845       2.661      19.143       2.734       2.730       2.727       2.723       2.720       2.698       2.677       2.656       2.635       2.638       2.642       2.645       2.649       2.670       2.691       2.713      12.912
    3214.400    2591.502      13.684      73.844     295.290     346.725       2.680      19.228       2.734       2.723       2.712       2.702       2.691       2.691       2.691       2.691       2.691       2.681       2.670       2.659       2.649       2.670       2.691       2.712      12.780
    3214.600    2591.512      15.292      71.692     300.305     344.633       2.688      19.190       2.734       2.716       2.698       2.681       2.663       2.663       2.663       2.663       2.663       2.666       2.670       2.674       2.677       2.691       2.705       2.720      13.185
    3214.800    2591.522      12.612      68.456     302.514     330.646       2.684      19.058       2.723       2.710       2.697       2.683       2.670       2.667       2.665       2.662       2.659       2.665       2.670       2.675       2.681       2.691       2.702       2.713      13.108
    3215.000    2591.532      13.630      69.535     304.022     313.686       2.678      18.831       2.702       2.705       2.707       2.710       2.712       2.705       2.697       2.689       2.681       2.675       2.670       2.665       2.659       2.670       2.681       2.691      12.846
    3215.200    2591.542      11.692      74.029     296.975     297.004       2.673      14.007       2.732       2.732       2.732       2.733       2.733       2.728       2.722       2.717       2.712       2.711       2.711       2.711       2.711       2.716       2.722       2.727      12.420
    3215.400    2591.552      11.164      74.928     281.375     281.435       2.667      14.739       2.796       2.785       2.775       2.765       2.754       2.738       2.722       2.706       2.690       2.690       2.690       2.690       2.690       2.716       2.743       2.769      12.239
    3215.600    2591.562      12.186      74.744     277.724     263.985       2.664      19.898       2.797       2.787       2.776       2.766       2.755       2.723       2.691       2.659       2.627       2.628       2.627       2.628       2.627       2.670       2.713       2.755      11.827
    3215.800    2591.572      12.871      73.827     286.025     244.374       2.663      19.373       2.755       2.750       2.744       2.739       2.734       2.705       2.675       2.646       2.617       2.625       2.633       2.641       2.649       2.675       2.702       2.728      11.399
