~VERSION INFORMATION SECTION
VERS.           2.0                           : CWLS LOG ASCII STANDARD - VERSION 2.0
WRAP.           NO                            : ONE LINE PER DEPTH STEP
~WELL INFORMATION SECTION
#MNEM.UNIT      VALUE/NAME                    : DESCRIPTION
#-----------------------------------------------------------------------------
STRT.M          3070.200                      : START DEPTH
STOP.M          3404.800                      : STOP DEPTH
STEP.M          0.200                         : STEP
NULL.           -999.250                      : NULL VALUE
COMP.           “‘ ¿Œ "—— "                   : COMPANY
WELL.           61/6                          : WELL
FLD.            Ã‡ÒÚÂ¸ÂÎ¸ÒÍÓÂ                : FIELD
LOC.                                          : LOCATION
CNTY.           Ã‡ÒÚÂ¸ÂÎ¸ÒÍÓÂ                : COUNTY
STAT.                                         : STATE
CTRY.                                         : COUNTRY
SRVC.           ”ÕÕ¡ ŒŒŒ "“Õ√-√ÛÔÔ"          : SERVICE COMPANY
DATE.           2025.08.16                    : LOG DATE
UWI.                                          : UNIQUE WELL ID
API.                                          : API NUMBER
~CURVE INFORMATION SECTION
#MNEM.UNITS     API CODES                     : DESCRIPTION OF MNEMONIC
#-----------------------------------------------------------------------------
DEPTH.M                                       : DEPTH
TVDSS.M                                       : TRUE VERTICAL DEPTH SUBSEA
ROP.M_H                                       : RATE OF PENETRATION
GR.API                                        : GAMMA RAY
P06H.OHMM                                     : PHASE SHIFT RESISTIVITY 0.6 METER SPACING AT 1.8 MHz
P10L.OHMM                                     : PHASE SHIFT RESISTIVITY 1.0 METER SPACING AT 400 KHz
RHO.GCC                                       : DENSITY
RHOIMG#.GCC                                   : RAW DENSITY IMAGE
RHOS01.GCC                                    : AZIMUTAL DENSITY 1
RHOS02.GCC                                    : AZIMUTAL DENSITY 2
RHOS03.GCC                                    : AZIMUTAL DENSITY 3
RHOS04.GCC                                    : AZIMUTAL DENSITY 4
RHOS05.GCC                                    : AZIMUTAL DENSITY 5
RHOS06.GCC                                    : AZIMUTAL DENSITY 6
RHOS07.GCC                                    : AZIMUTAL DENSITY 7
RHOS08.GCC                                    : AZIMUTAL DENSITY 8
RHOS09.GCC                                    : AZIMUTAL DENSITY 9
RHOS10.GCC                                    : AZIMUTAL DENSITY 10
RHOS11.GCC                                    : AZIMUTAL DENSITY 11
RHOS12.GCC                                    : AZIMUTAL DENSITY 12
RHOS13.GCC                                    : AZIMUTAL DENSITY 13
RHOS14.GCC                                    : AZIMUTAL DENSITY 14
RHOS15.GCC                                    : AZIMUTAL DENSITY 15
RHOS16.GCC                                    : AZIMUTAL DENSITY 16
WODCLS.PERCENT                                : HYDROGEN CONTENTS CALIBRATION FROM LINESTONE MATRIX
~PARAMETER INFORMATION SECTION
#-----------------------------------------------------------------------------
RTYPE.          √ , » , √√ , 2ÕÕ              : RESEARCH TYPE
DATASRC.        “—  Ó‚ÂÚ                     : DATA SOURCE
DHOLE.          146.00                        : HOLE DIAMETER
GROUP.          ÕÕ¡                           : GROUP NUMBER
ENG1.           ƒ‡Ì¸¯ËÌ Õ.¬.                  : NNB ENGINEER 1
ENG2.                                         : NNB ENGINEER 2
ENG3.                                         : NNB ENGINEER 3
TLMENG1.        «‡˚ÔÓ‚ –.–.                  : TELEMETRY ENGINEER 1
TLMENG2.        ÿ‡ÙË„ÛÎÎËÌ ƒ.».               : TELEMETRY ENGINEER 2
TLMENG3.                                      : TELEMETRY ENGINEER 3
PHONE.          +79172217478                  : PHONE NUMBER
EMAIL.          tng.nnb1@mail.ru              : EMAIL
ADDEMAIL.                                     : ADDITIONAL EMAIL
~A     DEPTH       TVDSS         ROP          GR        P06H        P10L         RHO     RHOIMG#      RHOS01      RHOS02      RHOS03      RHOS04      RHOS05      RHOS06      RHOS07      RHOS08      RHOS09      RHOS10      RHOS11      RHOS12      RHOS13      RHOS14      RHOS15      RHOS16      WODCLS
# ...
    3118.800    2585.843       5.631      42.429       0.250    1805.964       3.038      10.833       2.877       2.894       2.911       2.928       2.945       2.928       2.911       2.894       2.877       2.869       2.860       2.852       2.843       2.852       2.860       2.869      19.150
    3119.000    2585.863       6.538      38.380       0.252    1861.403       2.969      10.889       2.881       2.898       2.914       2.930       2.947       2.930       2.914       2.898       2.881       2.873       2.865       2.857       2.848       2.857       2.865       2.873      19.493
    3119.200    2585.882       6.616      35.285       0.252    1916.842       2.900      10.945       2.885       2.901       2.917       2.932       2.948       2.932       2.917       2.901       2.885       2.877       2.869       2.862       2.854       2.862       2.869       2.877      19.882
    3119.400    2585.901       6.906      35.825       0.249    1967.661       2.831      11.001       2.889       2.904       2.919       2.934       2.949       2.934       2.919       2.904       2.889       2.881       2.874       2.866       2.859       2.866       2.874       2.881      20.271
    3119.600    2585.921      13.981      38.408       0.237    1995.380       2.761      11.057       2.893       2.907       2.922       2.936       2.951       2.936       2.922       2.907       2.893       2.886       2.879       2.871       2.864       2.871       2.879       2.886      20.604
    3119.800    2585.940      29.890      43.462       0.219    2000.000       2.692      11.113       2.897       2.911       2.924       2.938       2.952       2.938       2.924       2.911       2.897       2.890       2.883       2.876       2.869       2.876       2.883       2.890      20.661
    3120.000    2585.959      21.546      49.153       0.208    2000.000       2.623      11.169       2.901       2.914       2.927       2.940       2.953       2.940       2.927       2.914       2.901       2.894       2.888       2.881       2.875       2.881       2.888       2.894      20.442
    3120.200    2585.979      21.528      50.658       0.212    2000.000       2.554      11.225       2.905       2.917       2.930       2.942       2.954       2.942       2.930       2.917       2.905       2.899       2.892       2.886       2.880       2.886       2.892       2.899      20.168
    3120.400    2585.998      24.855      47.976       0.219    2000.000       2.484      11.281       2.909       2.920       2.932       2.944       2.956       2.944       2.932       2.920       2.909       2.903       2.897       2.891       2.885       2.891       2.897       2.903      19.894
    3120.600    2586.017      23.052      44.457       0.226    2000.000       2.416      11.337       2.913       2.924       2.935       2.946       2.957       2.946       2.935       2.924       2.913       2.907       2.901       2.896       2.890       2.896       2.901       2.907      19.636
    3120.800    2586.036      23.544      40.939       0.232    2000.000       2.352      11.393       2.917       2.927       2.937       2.948       2.958       2.948       2.937       2.927       2.917       2.911       2.906       2.901       2.896       2.901       2.906       2.911      19.462
    3121.000    2586.055      27.266      37.740       0.233    2000.000       2.293      11.448       2.920       2.930       2.940       2.950       2.960       2.950       2.940       2.930       2.920       2.916       2.911       2.906       2.901       2.906       2.911       2.916      19.368
    3121.200    2586.074      27.490      36.140       0.232    2000.000       2.236      11.504       2.924       2.934       2.943       2.952       2.961       2.952       2.943       2.934       2.924       2.920       2.915       2.911       2.906       2.911       2.915       2.920      19.292
    3121.400    2586.094      23.846      36.138       0.231    2000.000       2.178      11.560       2.928       2.937       2.945       2.954       2.962       2.954       2.945       2.937       2.928       2.924       2.920       2.916       2.911       2.916       2.920       2.924      19.216
    3121.600    2586.113      19.606      36.456       0.231    2000.000       2.120      11.616       2.932       2.940       2.948       2.956       2.964       2.956       2.948       2.940       2.932       2.928       2.924       2.920       2.917       2.920       2.924       2.928      19.122
    3121.800    2586.131      18.364      36.725       0.231    2000.000       2.062      11.672       2.936       2.943       2.951       2.958       2.965       2.958       2.951       2.943       2.936       2.933       2.929       2.925       2.922       2.925       2.929       2.933      18.941
    3122.000    2586.150      20.503      36.742       0.230    2000.000       2.004      11.728       2.940       2.947       2.953       2.960       2.966       2.960       2.953       2.947       2.940       2.937       2.934       2.930       2.927       2.930       2.934       2.937      18.671
    3122.200    2586.169      20.924      36.509      66.889    2000.000       1.946      11.784       2.944       2.950       2.956       2.962       2.968       2.962       2.956       2.950       2.944       2.941       2.938       2.935       2.932       2.935       2.938       2.941      18.385
    3122.400    2586.188      20.082      36.226     466.843    2000.000       1.888      11.840       2.948       2.953       2.958       2.964       2.969       2.964       2.958       2.953       2.948       2.945       2.943       2.940       2.937       2.940       2.943       2.945      18.448
    3122.600    2586.207      20.515      35.908    1300.080    2000.000       1.831      11.896       2.952       2.956       2.961       2.966       2.970       2.966       2.961       2.956       2.952       2.950       2.947       2.945       2.943       2.945       2.947       2.950      20.749
    3122.800    2586.225      17.955      35.767    1733.405    1666.884       1.773      11.952       2.956       2.960       2.964       2.968       2.972       2.968       2.964       2.960       2.956       2.954       2.952       2.950       2.948       2.950       2.952       2.954      23.061
    3123.000    2586.244      18.321      35.944    1333.552     779.132       1.715      12.007       2.960       2.963       2.966       2.970       2.973       2.970       2.966       2.963       2.960       2.958       2.956       2.955       2.953       2.955       2.956       2.958      22.599
    3123.200    2586.263      21.785      36.226     583.661     117.092       1.657      12.062       2.964       2.966       2.969       2.972       2.974       2.972       2.969       2.966       2.964       2.962       2.961       2.960       2.958       2.960       2.961       2.962      18.876
    3123.400    2586.281      19.935      36.509      83.686     341.965       1.599      12.123       2.968       2.970       2.972       2.973       2.975       2.973       2.972       2.970       2.968       2.967       2.966       2.965       2.964       2.965       2.966       2.967      15.412
    3123.600    2586.300      15.328      36.709     671.647    1274.265       1.534      12.161       2.971       2.972       2.973       2.974       2.976       2.974       2.973       2.972       2.971       2.970       2.969       2.969       2.968       2.969       2.969       2.970      16.003
    3123.800    2586.318      14.174      36.493     756.761    1845.744       1.523      12.283       2.979       2.980       2.981       2.981       2.981       2.980       2.980       2.980       2.979       2.979       2.979       2.978       2.978       2.978       2.979       2.979      17.681
    3124.000    2586.337      16.463      35.859     255.676    1725.800       1.614      11.980       2.955       2.956       2.957       2.958       2.959       2.959       2.959       2.958       2.958       2.957       2.956       2.955       2.955       2.955       2.955       2.955      18.928
