~VERSION INFORMATION SECTION
VERS.           2.0                           : CWLS LOG ASCII STANDARD - VERSION 2.0
WRAP.           NO                            : ONE LINE PER DEPTH STEP
~WELL INFORMATION SECTION
#MNEM.UNIT      VALUE/NAME                    : DESCRIPTION
#-----------------------------------------------------------------------------
STRT.M          3070.200                      : START DEPTH
STOP.M          3404.800                      : STOP DEPTH
STEP.M          0.200                         : STEP
NULL.           -999.250                      : NULL VALUE
COMP.           “‘ ¿Œ "—— "                   : COMPANY
WELL.           61/6                          : WELL
FLD.            Ã‡ÒÚÂ¸ÂÎ¸ÒÍÓÂ                : FIELD
LOC.                                          : LOCATION
CNTY.           Ã‡ÒÚÂ¸ÂÎ¸ÒÍÓÂ                : COUNTY
STAT.                                         : STATE
CTRY.                                         : COUNTRY
SRVC.           ”ÕÕ¡ ŒŒŒ "“Õ√-√ÛÔÔ"          : SERVICE COMPANY
DATE.           2025.08.16                    : LOG DATE
UWI.                                          : UNIQUE WELL ID
API.                                          : API NUMBER
~CURVE INFORMATION SECTION
#MNEM.UNITS     API CODES                     : DESCRIPTION OF MNEMONIC
#-----------------------------------------------------------------------------
DEPTH.M                                       : DEPTH
TVDSS.M                                       : TRUE VERTICAL DEPTH SUBSEA
ROP.M_H                                       : RATE OF PENETRATION
GR.API                                        : GAMMA RAY
P06H.OHMM                                     : PHASE SHIFT RESISTIVITY 0.6 METER SPACING AT 1.8 MHz
P10L.OHMM                                     : PHASE SHIFT RESISTIVITY 1.0 METER SPACING AT 400 KHz
RHO.GCC                                       : DENSITY
RHOIMG#.GCC                                   : RAW DENSITY IMAGE
RHOS01.GCC                                    : AZIMUTAL DENSITY 1
RHOS02.GCC                                    : AZIMUTAL DENSITY 2
RHOS03.GCC                                    : AZIMUTAL DENSITY 3
RHOS04.GCC                                    : AZIMUTAL DENSITY 4
RHOS05.GCC                                    : AZIMUTAL DENSITY 5
RHOS06.GCC                                    : AZIMUTAL DENSITY 6
RHOS07.GCC                                    : AZIMUTAL DENSITY 7
RHOS08.GCC                                    : AZIMUTAL DENSITY 8
RHOS09.GCC                                    : AZIMUTAL DENSITY 9
RHOS10.GCC                                    : AZIMUTAL DENSITY 10
RHOS11.GCC                                    : AZIMUTAL DENSITY 11
RHOS12.GCC                                    : AZIMUTAL DENSITY 12
RHOS13.GCC                                    : AZIMUTAL DENSITY 13
RHOS14.GCC                                    : AZIMUTAL DENSITY 14
RHOS15.GCC                                    : AZIMUTAL DENSITY 15
RHOS16.GCC                                    : AZIMUTAL DENSITY 16
WODCLS.PERCENT                                : HYDROGEN CONTENTS CALIBRATION FROM LINESTONE MATRIX
~PARAMETER INFORMATION SECTION
#-----------------------------------------------------------------------------
RTYPE.          √ , » , √√ , 2ÕÕ              : RESEARCH TYPE
DATASRC.        “—  Ó‚ÂÚ                     : DATA SOURCE
DHOLE.          146.00                        : HOLE DIAMETER
GROUP.          ÕÕ¡                           : GROUP NUMBER
ENG1.           ƒ‡Ì¸¯ËÌ Õ.¬.                  : NNB ENGINEER 1
ENG2.                                         : NNB ENGINEER 2
ENG3.                                         : NNB ENGINEER 3
TLMENG1.        «‡˚ÔÓ‚ –.–.                  : TELEMETRY ENGINEER 1
TLMENG2.        ÿ‡ÙË„ÛÎÎËÌ ƒ.».               : TELEMETRY ENGINEER 2
TLMENG3.                                      : TELEMETRY ENGINEER 3
PHONE.          +79172217478                  : PHONE NUMBER
EMAIL.          tng.nnb1@mail.ru              : EMAIL
ADDEMAIL.                                     : ADDITIONAL EMAIL
~A     DEPTH       TVDSS         ROP          GR        P06H        P10L         RHO     RHOIMG#      RHOS01      RHOS02      RHOS03      RHOS04      RHOS05      RHOS06      RHOS07      RHOS08      RHOS09      RHOS10      RHOS11      RHOS12      RHOS13      RHOS14      RHOS15      RHOS16      WODCLS
# ...
    3324.000    2594.070      11.200      63.535      89.108     106.138       2.614       7.150       2.564       2.574       2.585       2.596       2.606       2.617       2.627       2.638       2.649       2.628       2.606       2.585       2.564       2.564       2.564       2.564      15.968
    3324.200    2594.072      10.873      63.200      90.388     111.596       2.622      22.371       2.578       2.589       2.599       2.610       2.620       2.627       2.635       2.642       2.649       2.635       2.620       2.606       2.592       2.589       2.585       2.581      15.523
    3324.400    2594.074      10.506      62.687      90.509     116.168       2.626      37.592       2.592       2.603       2.613       2.624       2.635       2.638       2.642       2.645       2.649       2.642       2.635       2.628       2.620       2.613       2.606       2.599      15.357
    3324.600    2594.076      10.849      62.374      90.250     117.344       2.630       7.679       2.606       2.617       2.627       2.638       2.649       2.649       2.649       2.649       2.649       2.649       2.649       2.649       2.649       2.638       2.628       2.617      15.217
    3324.800    2594.078      10.067      62.862      90.769     108.480       2.630      15.292       2.691       2.681       2.670       2.659       2.649       2.642       2.635       2.627       2.620       2.628       2.635       2.642       2.649       2.659       2.670       2.681      14.906
    3325.000    2594.080       9.204      63.549      91.379     100.822       2.626      19.117       2.734       2.712       2.691       2.670       2.649       2.641       2.633       2.625       2.617       2.628       2.638       2.649       2.659       2.678       2.697       2.715      14.755
    3325.200    2594.082      10.303      64.237      92.085     104.881       2.622      19.153       2.734       2.713       2.691       2.670       2.649       2.646       2.643       2.641       2.638       2.649       2.659       2.670       2.681       2.694       2.707       2.720      14.807
    3325.400    2594.084      11.031      64.924      92.799     100.089       2.623      28.390       2.705       2.688       2.670       2.652       2.635       2.635       2.635       2.635       2.635       2.645       2.656       2.666       2.677       2.684       2.691       2.698      14.859
    3325.600    2594.086      10.514      64.750      93.156     107.987       2.629      37.619       2.649       2.638       2.628       2.617       2.606       2.606       2.606       2.606       2.606       2.617       2.627       2.638       2.649       2.649       2.649       2.649      14.911
    3325.800    2594.088       9.665      63.886      94.079     120.339       2.630      37.640       2.627       2.628       2.628       2.628       2.627       2.628       2.628       2.628       2.627       2.633       2.638       2.643       2.649       2.643       2.638       2.633      14.963
    3326.000    2594.090      10.535      63.714      95.432     121.027       2.628       7.679       2.606       2.617       2.627       2.638       2.649       2.649       2.649       2.649       2.649       2.649       2.649       2.649       2.649       2.638       2.627       2.617      15.015
    3326.200    2594.092      11.301      63.714      94.813     120.582       2.635      37.640       2.663       2.674       2.684       2.695       2.705       2.691       2.677       2.663       2.649       2.649       2.649       2.649       2.649       2.652       2.656       2.659      15.098
    3326.400    2594.094      14.112      63.714      93.977     118.411       2.640      34.927       2.691       2.700       2.709       2.718       2.727       2.708       2.688       2.668       2.649       2.649       2.649       2.649       2.649       2.659       2.670       2.681      15.306
    3326.600    2594.096      14.514      63.714      94.184     111.750       2.635      32.215       2.691       2.697       2.703       2.708       2.714       2.698       2.681       2.665       2.649       2.649       2.649       2.649       2.649       2.659       2.670       2.681      15.496
    3326.800    2594.098      14.078      63.714      94.407     108.772       2.628      29.502       2.691       2.694       2.696       2.699       2.701       2.688       2.675       2.662       2.649       2.649       2.649       2.649       2.649       2.659       2.670       2.681      15.484
    3327.000    2594.100      14.968      63.085      94.566     107.075       2.630      26.789       2.691       2.690       2.690       2.689       2.688       2.678       2.668       2.659       2.649       2.649       2.649       2.649       2.649       2.659       2.670       2.681      15.163
    3327.200    2594.102      13.387      59.941      94.724     105.378       2.635      24.076       2.691       2.687       2.683       2.679       2.675       2.668       2.662       2.655       2.649       2.649       2.649       2.649       2.649       2.659       2.670       2.681      14.546
    3327.400    2594.104      12.635      57.636      94.803     108.129       2.640      21.364       2.691       2.684       2.677       2.669       2.662       2.659       2.655       2.652       2.649       2.649       2.649       2.649       2.649       2.659       2.670       2.681      14.111
    3327.600    2594.106      14.986      61.198      94.435     115.418       2.644      18.651       2.691       2.681       2.670       2.659       2.649       2.649       2.649       2.649       2.649       2.649       2.649       2.649       2.649       2.659       2.670       2.681      14.546
    3327.800    2594.108      16.142      61.461      93.896     121.249       2.649      18.399       2.670       2.665       2.659       2.654       2.649       2.649       2.649       2.649       2.649       2.654       2.659       2.665       2.670       2.670       2.670       2.670      14.823
    3328.000    2594.110      10.785      56.956      94.141     120.876       2.651      18.147       2.649       2.649       2.649       2.649       2.649       2.649       2.649       2.649       2.649       2.659       2.670       2.681       2.691       2.681       2.670       2.659      14.725
    3328.200    2594.111       9.768      56.572      94.582     118.954       2.641      18.119       2.649       2.643       2.638       2.633       2.627       2.627       2.628       2.627       2.627       2.649       2.670       2.691       2.712       2.697       2.681       2.665      14.676
    3328.400    2594.113      13.192      60.307      94.989     114.718       2.625      18.090       2.649       2.638       2.628       2.617       2.606       2.606       2.606       2.606       2.606       2.638       2.670       2.702       2.734       2.713       2.691       2.670      14.676
    3328.600    2594.115      11.804      62.073      95.022     105.620       2.626       8.127       2.649       2.649       2.649       2.649       2.649       2.638       2.627       2.617       2.606       2.617       2.627       2.638       2.649       2.649       2.649       2.649      14.637
    3328.800    2594.117      12.496      61.870      94.083     111.764       2.635      18.643       2.691       2.681       2.670       2.659       2.649       2.649       2.649       2.649       2.649       2.638       2.628       2.617       2.606       2.628       2.649       2.670      14.559
    3329.000    2594.119      13.391      61.666      94.336     116.580       2.645      13.385       2.670       2.665       2.659       2.654       2.649       2.643       2.638       2.633       2.627       2.627       2.628       2.627       2.627       2.638       2.649       2.659      14.494
    3329.200    2594.121      11.823      61.463      94.972     115.678       2.650       8.127       2.649       2.649       2.649       2.649       2.649       2.638       2.628       2.617       2.606       2.617       2.628       2.638       2.649       2.649       2.649       2.649      14.760
