~VERSION INFORMATION SECTION
VERS.           2.0                           : CWLS LOG ASCII STANDARD - VERSION 2.0
WRAP.           NO                            : ONE LINE PER DEPTH STEP
~WELL INFORMATION SECTION
#MNEM.UNIT      VALUE/NAME                    : DESCRIPTION
#-----------------------------------------------------------------------------
STRT.M          3070.200                      : START DEPTH
STOP.M          3404.800                      : STOP DEPTH
STEP.M          0.200                         : STEP
NULL.           -999.250                      : NULL VALUE
COMP.           “‘ ¿Œ "—— "                   : COMPANY
WELL.           61/6                          : WELL
FLD.            Ã‡ÒÚÂ¸ÂÎ¸ÒÍÓÂ                : FIELD
LOC.                                          : LOCATION
CNTY.           Ã‡ÒÚÂ¸ÂÎ¸ÒÍÓÂ                : COUNTY
STAT.                                         : STATE
CTRY.                                         : COUNTRY
SRVC.           ”ÕÕ¡ ŒŒŒ "“Õ√-√ÛÔÔ"          : SERVICE COMPANY
DATE.           2025.08.16                    : LOG DATE
UWI.                                          : UNIQUE WELL ID
API.                                          : API NUMBER
~CURVE INFORMATION SECTION
#MNEM.UNITS     API CODES                     : DESCRIPTION OF MNEMONIC
#-----------------------------------------------------------------------------
DEPTH.M                                       : DEPTH
TVDSS.M                                       : TRUE VERTICAL DEPTH SUBSEA
ROP.M_H                                       : RATE OF PENETRATION
GR.API                                        : GAMMA RAY
P06H.OHMM                                     : PHASE SHIFT RESISTIVITY 0.6 METER SPACING AT 1.8 MHz
P10L.OHMM                                     : PHASE SHIFT RESISTIVITY 1.0 METER SPACING AT 400 KHz
RHO.GCC                                       : DENSITY
RHOIMG#.GCC                                   : RAW DENSITY IMAGE
RHOS01.GCC                                    : AZIMUTAL DENSITY 1
RHOS02.GCC                                    : AZIMUTAL DENSITY 2
RHOS03.GCC                                    : AZIMUTAL DENSITY 3
RHOS04.GCC                                    : AZIMUTAL DENSITY 4
RHOS05.GCC                                    : AZIMUTAL DENSITY 5
RHOS06.GCC                                    : AZIMUTAL DENSITY 6
RHOS07.GCC                                    : AZIMUTAL DENSITY 7
RHOS08.GCC                                    : AZIMUTAL DENSITY 8
RHOS09.GCC                                    : AZIMUTAL DENSITY 9
RHOS10.GCC                                    : AZIMUTAL DENSITY 10
RHOS11.GCC                                    : AZIMUTAL DENSITY 11
RHOS12.GCC                                    : AZIMUTAL DENSITY 12
RHOS13.GCC                                    : AZIMUTAL DENSITY 13
RHOS14.GCC                                    : AZIMUTAL DENSITY 14
RHOS15.GCC                                    : AZIMUTAL DENSITY 15
RHOS16.GCC                                    : AZIMUTAL DENSITY 16
WODCLS.PERCENT                                : HYDROGEN CONTENTS CALIBRATION FROM LINESTONE MATRIX
~PARAMETER INFORMATION SECTION
#-----------------------------------------------------------------------------
RTYPE.          √ , » , √√ , 2ÕÕ              : RESEARCH TYPE
DATASRC.        “—  Ó‚ÂÚ                     : DATA SOURCE
DHOLE.          146.00                        : HOLE DIAMETER
GROUP.          ÕÕ¡                           : GROUP NUMBER
ENG1.           ƒ‡Ì¸¯ËÌ Õ.¬.                  : NNB ENGINEER 1
ENG2.                                         : NNB ENGINEER 2
ENG3.                                         : NNB ENGINEER 3
TLMENG1.        «‡˚ÔÓ‚ –.–.                  : TELEMETRY ENGINEER 1
TLMENG2.        ÿ‡ÙË„ÛÎÎËÌ ƒ.».               : TELEMETRY ENGINEER 2
TLMENG3.                                      : TELEMETRY ENGINEER 3
PHONE.          +79172217478                  : PHONE NUMBER
EMAIL.          tng.nnb1@mail.ru              : EMAIL
ADDEMAIL.                                     : ADDITIONAL EMAIL
~A     DEPTH       TVDSS         ROP          GR        P06H        P10L         RHO     RHOIMG#      RHOS01      RHOS02      RHOS03      RHOS04      RHOS05      RHOS06      RHOS07      RHOS08      RHOS09      RHOS10      RHOS11      RHOS12      RHOS13      RHOS14      RHOS15      RHOS16      WODCLS
# ...
    3286.200    2593.597       8.978      55.685      89.172     127.020       2.578      11.832       2.542       2.521       2.500       2.479       2.458       2.500       2.542       2.585       2.627       2.612       2.596       2.580       2.564       2.558       2.553       2.548      16.918
    3286.400    2593.599       6.640      56.339      88.143     121.983       2.588       7.008       2.564       2.511       2.457       2.404       2.351       2.404       2.458       2.511       2.564       2.553       2.542       2.532       2.521       2.532       2.543       2.553      16.848
    3286.600    2593.602       6.443      56.993      87.698     118.748       2.599       7.221       2.581       2.545       2.508       2.472       2.436       2.468       2.500       2.532       2.564       2.562       2.560       2.557       2.555       2.562       2.568       2.574      16.936
    3286.800    2593.604       6.281      57.879      88.143     119.388       2.609       7.434       2.598       2.579       2.560       2.540       2.521       2.532       2.542       2.553       2.564       2.570       2.577       2.583       2.589       2.591       2.594       2.596      17.025
    3287.000    2593.606       6.636      59.690      88.588     120.029       2.615       7.393       2.596       2.588       2.580       2.572       2.564       2.561       2.558       2.556       2.553       2.561       2.569       2.577       2.585       2.588       2.590       2.593      17.114
    3287.200    2593.608       5.322      61.732      89.034     120.670       2.617       7.097       2.574       2.572       2.569       2.566       2.564       2.556       2.548       2.540       2.532       2.535       2.537       2.540       2.542       2.550       2.558       2.566      17.202
    3287.400    2593.611       4.878      63.775      89.279     122.557       2.619       6.777       2.553       2.558       2.564       2.569       2.574       2.553       2.532       2.511       2.489       2.503       2.516       2.529       2.542       2.545       2.548       2.550      17.291
    3287.600    2593.613       5.022      65.817      88.724     129.432       2.620       6.434       2.532       2.548       2.564       2.580       2.596       2.553       2.511       2.468       2.426       2.465       2.505       2.545       2.585       2.572       2.558       2.545      17.273
    3287.800    2593.615       6.766      65.817      88.151     137.554       2.622       7.803       2.524       2.544       2.565       2.586       2.606       2.558       2.511       2.463       2.415       2.463       2.511       2.558       2.606       2.586       2.565       2.544      16.829
    3288.000    2593.617       8.054      63.775      88.305     137.567       2.624      10.886       2.528       2.548       2.567       2.587       2.606       2.569       2.532       2.495       2.458       2.495       2.532       2.569       2.606       2.587       2.567       2.548      16.279
    3288.200    2593.620       9.648      61.732      88.640     129.472       2.631      11.184       2.533       2.551       2.570       2.588       2.606       2.580       2.553       2.527       2.500       2.527       2.553       2.580       2.606       2.588       2.570       2.551      15.729
    3288.400    2593.622       8.438      59.690      88.976     121.377       2.653      11.482       2.538       2.555       2.572       2.589       2.606       2.590       2.574       2.558       2.542       2.558       2.574       2.590       2.606       2.589       2.572       2.555      15.453
    3288.600    2593.624       8.698      58.169      89.311     113.281       2.647      11.780       2.542       2.558       2.574       2.590       2.606       2.601       2.596       2.590       2.585       2.590       2.596       2.601       2.606       2.590       2.574       2.558      15.453
    3288.800    2593.626       8.699      58.736      89.544     110.986       2.634       9.658       2.574       2.588       2.601       2.614       2.627       2.614       2.601       2.588       2.574       2.577       2.580       2.582       2.585       2.582       2.580       2.577      15.502
    3289.000    2593.628      10.900      59.825      89.674     114.489       2.621       7.535       2.606       2.617       2.627       2.638       2.649       2.627       2.606       2.585       2.564       2.564       2.564       2.564       2.564       2.574       2.585       2.596      15.743
    3289.200    2593.631       9.421      60.914      89.805     117.993       2.612      12.869       2.627       2.633       2.638       2.643       2.649       2.643       2.638       2.633       2.627       2.622       2.617       2.612       2.606       2.612       2.617       2.622      16.023
    3289.400    2593.633       8.192      62.002      89.935     121.496       2.609      18.203       2.649       2.649       2.649       2.649       2.649       2.659       2.670       2.681       2.691       2.681       2.670       2.659       2.649       2.649       2.649       2.649      16.264
    3289.600    2593.635       9.018      63.091      89.804     124.896       2.607      21.940       2.632       2.640       2.649       2.657       2.666       2.672       2.678       2.685       2.691       2.681       2.670       2.659       2.649       2.644       2.640       2.636      16.495
    3289.800    2593.637       9.164      64.179      89.411     127.880       2.605      25.677       2.615       2.632       2.649       2.666       2.683       2.685       2.687       2.689       2.691       2.681       2.670       2.659       2.649       2.640       2.632       2.623      16.289
    3290.000    2593.639       9.771      64.831      89.589     130.279       2.604      20.753       2.592       2.610       2.627       2.645       2.663       2.666       2.670       2.674       2.677       2.670       2.663       2.656       2.649       2.635       2.620       2.606      15.729
    3290.200    2593.642      11.919      63.736      90.337     130.759       2.600       7.166       2.564       2.574       2.585       2.596       2.606       2.617       2.627       2.638       2.649       2.649       2.649       2.649       2.649       2.628       2.606       2.585      15.497
    3290.400    2593.644      11.650      62.205      91.085     130.759       2.586      37.384       2.649       2.638       2.628       2.617       2.606       2.606       2.606       2.606       2.606       2.606       2.606       2.606       2.606       2.617       2.627       2.638      15.348
    3290.600    2593.646      11.753      60.673      91.832     130.759       2.570      19.018       2.734       2.702       2.670       2.638       2.606       2.596       2.585       2.574       2.564       2.564       2.564       2.564       2.564       2.606       2.649       2.691      15.199
    3290.800    2593.648      11.265      59.905      92.580     130.759       2.568      37.464       2.649       2.645       2.642       2.638       2.635       2.624       2.613       2.603       2.592       2.585       2.578       2.571       2.564       2.585       2.606       2.628      15.050
    3291.000    2593.650      12.568      62.190      93.328     130.759       2.582      17.094       2.585       2.590       2.596       2.601       2.606       2.590       2.574       2.558       2.542       2.558       2.574       2.590       2.606       2.601       2.596       2.590      14.900
    3291.200    2593.653      13.380      63.714      94.076     130.759       2.594      10.831       2.606       2.603       2.599       2.596       2.592       2.578       2.564       2.550       2.535       2.574       2.613       2.652       2.691       2.670       2.649       2.627      14.751
    3291.400    2593.655      13.577      63.714      94.824     130.759       2.598      18.675       2.691       2.681       2.670       2.659       2.649       2.649       2.649       2.649       2.649       2.681       2.713       2.744       2.776       2.755       2.734       2.712      15.112
