~VERSION INFORMATION SECTION
VERS.           2.0                           : CWLS LOG ASCII STANDARD - VERSION 2.0
WRAP.           NO                            : ONE LINE PER DEPTH STEP
~WELL INFORMATION SECTION
#MNEM.UNIT      VALUE/NAME                    : DESCRIPTION
#-----------------------------------------------------------------------------
STRT.M          3070.200                      : START DEPTH
STOP.M          3404.800                      : STOP DEPTH
STEP.M          0.200                         : STEP
NULL.           -999.250                      : NULL VALUE
COMP.           “‘ ¿Œ "—— "                   : COMPANY
WELL.           61/6                          : WELL
FLD.            Ã‡ÒÚÂ¸ÂÎ¸ÒÍÓÂ                : FIELD
LOC.                                          : LOCATION
CNTY.           Ã‡ÒÚÂ¸ÂÎ¸ÒÍÓÂ                : COUNTY
STAT.                                         : STATE
CTRY.                                         : COUNTRY
SRVC.           ”ÕÕ¡ ŒŒŒ "“Õ√-√ÛÔÔ"          : SERVICE COMPANY
DATE.           2025.08.16                    : LOG DATE
UWI.                                          : UNIQUE WELL ID
API.                                          : API NUMBER
~CURVE INFORMATION SECTION
#MNEM.UNITS     API CODES                     : DESCRIPTION OF MNEMONIC
#-----------------------------------------------------------------------------
DEPTH.M                                       : DEPTH
TVDSS.M                                       : TRUE VERTICAL DEPTH SUBSEA
ROP.M_H                                       : RATE OF PENETRATION
GR.API                                        : GAMMA RAY
P06H.OHMM                                     : PHASE SHIFT RESISTIVITY 0.6 METER SPACING AT 1.8 MHz
P10L.OHMM                                     : PHASE SHIFT RESISTIVITY 1.0 METER SPACING AT 400 KHz
RHO.GCC                                       : DENSITY
RHOIMG#.GCC                                   : RAW DENSITY IMAGE
RHOS01.GCC                                    : AZIMUTAL DENSITY 1
RHOS02.GCC                                    : AZIMUTAL DENSITY 2
RHOS03.GCC                                    : AZIMUTAL DENSITY 3
RHOS04.GCC                                    : AZIMUTAL DENSITY 4
RHOS05.GCC                                    : AZIMUTAL DENSITY 5
RHOS06.GCC                                    : AZIMUTAL DENSITY 6
RHOS07.GCC                                    : AZIMUTAL DENSITY 7
RHOS08.GCC                                    : AZIMUTAL DENSITY 8
RHOS09.GCC                                    : AZIMUTAL DENSITY 9
RHOS10.GCC                                    : AZIMUTAL DENSITY 10
RHOS11.GCC                                    : AZIMUTAL DENSITY 11
RHOS12.GCC                                    : AZIMUTAL DENSITY 12
RHOS13.GCC                                    : AZIMUTAL DENSITY 13
RHOS14.GCC                                    : AZIMUTAL DENSITY 14
RHOS15.GCC                                    : AZIMUTAL DENSITY 15
RHOS16.GCC                                    : AZIMUTAL DENSITY 16
WODCLS.PERCENT                                : HYDROGEN CONTENTS CALIBRATION FROM LINESTONE MATRIX
~PARAMETER INFORMATION SECTION
#-----------------------------------------------------------------------------
RTYPE.          √ , » , √√ , 2ÕÕ              : RESEARCH TYPE
DATASRC.        “—  Ó‚ÂÚ                     : DATA SOURCE
DHOLE.          146.00                        : HOLE DIAMETER
GROUP.          ÕÕ¡                           : GROUP NUMBER
ENG1.           ƒ‡Ì¸¯ËÌ Õ.¬.                  : NNB ENGINEER 1
ENG2.                                         : NNB ENGINEER 2
ENG3.                                         : NNB ENGINEER 3
TLMENG1.        «‡˚ÔÓ‚ –.–.                  : TELEMETRY ENGINEER 1
TLMENG2.        ÿ‡ÙË„ÛÎÎËÌ ƒ.».               : TELEMETRY ENGINEER 2
TLMENG3.                                      : TELEMETRY ENGINEER 3
PHONE.          +79172217478                  : PHONE NUMBER
EMAIL.          tng.nnb1@mail.ru              : EMAIL
ADDEMAIL.                                     : ADDITIONAL EMAIL
~A     DEPTH       TVDSS         ROP          GR        P06H        P10L         RHO     RHOIMG#      RHOS01      RHOS02      RHOS03      RHOS04      RHOS05      RHOS06      RHOS07      RHOS08      RHOS09      RHOS10      RHOS11      RHOS12      RHOS13      RHOS14      RHOS15      RHOS16      WODCLS
# ...
    3172.800    2589.276       5.755      60.998     278.129     323.961       2.712      14.685       2.634       2.641       2.648       2.655       2.663       2.694       2.725       2.757       2.788       2.771       2.753       2.736       2.719       2.697       2.676       2.655      12.845
    3173.000    2589.288       5.638      64.711     316.518     353.046       2.708       9.552       2.773       2.752       2.732       2.711       2.691       2.742       2.794       2.845       2.897       2.866       2.835       2.804       2.773       2.773       2.773       2.773      11.765
    3173.200    2589.301       5.505      67.629     352.404     363.925       2.696      13.246       2.740       2.724       2.707       2.691       2.674       2.713       2.753       2.792       2.832       2.809       2.786       2.763       2.740       2.740       2.740       2.740      11.623
    3173.400    2589.313       5.265      67.367     347.570     359.807       2.684      16.940       2.708       2.695       2.682       2.670       2.657       2.684       2.712       2.739       2.766       2.752       2.737       2.722       2.708       2.708       2.708       2.708      11.714
    3173.600    2589.325       5.383      65.797     332.557     340.692       2.700      18.657       2.681       2.675       2.670       2.665       2.659       2.678       2.697       2.715       2.734       2.720       2.707       2.694       2.681       2.681       2.681       2.681      11.805
    3173.800    2589.337       6.723      64.581     317.544     321.577       2.744      18.398       2.659       2.665       2.670       2.675       2.681       2.694       2.707       2.720       2.734       2.715       2.697       2.678       2.659       2.659       2.659       2.659      11.896
    3174.000    2589.349       8.715      65.540     302.530     302.462       2.749      18.140       2.638       2.651       2.665       2.678       2.691       2.702       2.713       2.723       2.734       2.713       2.691       2.670       2.649       2.646       2.643       2.641      11.987
    3174.200    2589.362      10.942      63.470     287.517     283.348       2.713      17.884       2.617       2.635       2.654       2.673       2.691       2.702       2.713       2.723       2.734       2.713       2.691       2.670       2.649       2.641       2.633       2.625      12.078
    3174.400    2589.374      12.312      65.284     273.701     280.646       2.680      18.239       2.649       2.649       2.649       2.649       2.649       2.665       2.681       2.697       2.712       2.702       2.691       2.681       2.670       2.665       2.659       2.654      12.478
    3174.600    2589.386      10.404      66.838     268.617     283.020       2.655      17.148       2.705       2.684       2.663       2.641       2.620       2.640       2.659       2.679       2.698       2.696       2.695       2.693       2.691       2.695       2.698       2.701      13.186
    3174.800    2589.399       7.650      66.664     271.069     274.058       2.652      14.001       2.732       2.711       2.690       2.669       2.648       2.664       2.680       2.696       2.712       2.706       2.701       2.696       2.691       2.701       2.712       2.722      13.631
    3175.000    2589.411       6.454      65.791     273.521     265.095       2.656      10.854       2.759       2.739       2.718       2.697       2.677       2.689       2.701       2.713       2.725       2.717       2.708       2.699       2.691       2.708       2.725       2.742      13.028
    3175.200    2589.423       6.374      65.268     275.973     256.133       2.659      11.257       2.765       2.751       2.736       2.722       2.708       2.710       2.712       2.713       2.715       2.707       2.699       2.690       2.682       2.703       2.724       2.745      12.162
    3175.400    2589.436       7.777      65.268     278.425     247.170       2.662      15.212       2.750       2.748       2.746       2.744       2.742       2.727       2.712       2.697       2.682       2.678       2.674       2.670       2.666       2.687       2.707       2.729      11.571
    3175.600    2589.448       7.862      65.268     280.877     238.207       2.665      19.166       2.734       2.744       2.755       2.766       2.776       2.744       2.713       2.681       2.649       2.649       2.649       2.649       2.649       2.670       2.691       2.712      11.254
    3175.800    2589.460       7.665      65.268     283.959     229.245       2.671      18.995       2.720       2.730       2.741       2.751       2.762       2.734       2.705       2.677       2.649       2.649       2.649       2.649       2.649       2.666       2.684       2.702      11.056
    3176.000    2589.473       8.207      65.095     289.561     234.168       2.681      18.824       2.705       2.716       2.727       2.737       2.748       2.723       2.698       2.674       2.649       2.649       2.649       2.649       2.649       2.663       2.677       2.691      11.333
    3176.200    2589.485       8.522      64.232     295.793     252.977       2.687      18.653       2.691       2.702       2.713       2.723       2.734       2.712       2.691       2.670       2.649       2.649       2.649       2.649       2.649       2.659       2.670       2.681      11.728
    3176.400    2589.498       9.249      63.101     302.025     271.785       2.678      14.497       2.691       2.697       2.704       2.710       2.716       2.708       2.699       2.691       2.682       2.682       2.682       2.682       2.682       2.684       2.686       2.689      12.102
    3176.600    2589.510      10.708      61.876     308.257     290.594       2.667      10.342       2.691       2.693       2.695       2.697       2.699       2.703       2.707       2.711       2.715       2.715       2.715       2.715       2.715       2.709       2.703       2.697      12.386
    3176.800    2589.522      11.740      60.855     314.490     309.403       2.655      10.343       2.691       2.689       2.687       2.684       2.682       2.691       2.699       2.707       2.715       2.717       2.719       2.722       2.724       2.716       2.707       2.699      12.649
    3177.000    2589.535      11.365      60.650     320.039     328.211       2.643      14.501       2.691       2.685       2.678       2.672       2.666       2.670       2.674       2.678       2.682       2.688       2.695       2.701       2.708       2.703       2.699       2.695      12.911
    3177.200    2589.547      12.519      60.650     322.856     325.868       2.635      18.659       2.691       2.681       2.670       2.659       2.649       2.649       2.649       2.649       2.649       2.659       2.670       2.681       2.691       2.691       2.691       2.691      13.174
    3177.400    2589.560      12.286      60.150     324.990     302.374       2.643      18.678       2.691       2.688       2.684       2.681       2.677       2.674       2.670       2.666       2.663       2.666       2.670       2.674       2.677       2.681       2.684       2.688      13.452
    3177.600    2589.572      11.082      59.149     327.124     278.879       2.655      18.698       2.691       2.695       2.698       2.702       2.705       2.698       2.691       2.684       2.677       2.674       2.670       2.666       2.663       2.670       2.677       2.684      13.746
    3177.800    2589.584      10.663      58.148     328.743     266.636       2.662      18.717       2.691       2.702       2.712       2.723       2.734       2.723       2.713       2.702       2.691       2.681       2.670       2.659       2.649       2.659       2.670       2.681      14.040
    3178.000    2589.597      10.523      58.659     328.299     299.397       2.652      18.658       2.691       2.700       2.708       2.716       2.724       2.707       2.689       2.671       2.653       2.650       2.646       2.643       2.639       2.652       2.665       2.678      14.334
