~VERSION INFORMATION SECTION
VERS.           2.0                           : CWLS LOG ASCII STANDARD - VERSION 2.0
WRAP.           NO                            : ONE LINE PER DEPTH STEP
~WELL INFORMATION SECTION
#MNEM.UNIT      VALUE/NAME                    : DESCRIPTION
#-----------------------------------------------------------------------------
STRT.M          3070.200                      : START DEPTH
STOP.M          3404.800                      : STOP DEPTH
STEP.M          0.200                         : STEP
NULL.           -999.250                      : NULL VALUE
COMP.           “‘ ¿Œ "—— "                   : COMPANY
WELL.           61/6                          : WELL
FLD.            Ã‡ÒÚÂ¸ÂÎ¸ÒÍÓÂ                : FIELD
LOC.                                          : LOCATION
CNTY.           Ã‡ÒÚÂ¸ÂÎ¸ÒÍÓÂ                : COUNTY
STAT.                                         : STATE
CTRY.                                         : COUNTRY
SRVC.           ”ÕÕ¡ ŒŒŒ "“Õ√-√ÛÔÔ"          : SERVICE COMPANY
DATE.           2025.08.16                    : LOG DATE
UWI.                                          : UNIQUE WELL ID
API.                                          : API NUMBER
~CURVE INFORMATION SECTION
#MNEM.UNITS     API CODES                     : DESCRIPTION OF MNEMONIC
#-----------------------------------------------------------------------------
DEPTH.M                                       : DEPTH
TVDSS.M                                       : TRUE VERTICAL DEPTH SUBSEA
ROP.M_H                                       : RATE OF PENETRATION
GR.API                                        : GAMMA RAY
P06H.OHMM                                     : PHASE SHIFT RESISTIVITY 0.6 METER SPACING AT 1.8 MHz
P10L.OHMM                                     : PHASE SHIFT RESISTIVITY 1.0 METER SPACING AT 400 KHz
RHO.GCC                                       : DENSITY
RHOIMG#.GCC                                   : RAW DENSITY IMAGE
RHOS01.GCC                                    : AZIMUTAL DENSITY 1
RHOS02.GCC                                    : AZIMUTAL DENSITY 2
RHOS03.GCC                                    : AZIMUTAL DENSITY 3
RHOS04.GCC                                    : AZIMUTAL DENSITY 4
RHOS05.GCC                                    : AZIMUTAL DENSITY 5
RHOS06.GCC                                    : AZIMUTAL DENSITY 6
RHOS07.GCC                                    : AZIMUTAL DENSITY 7
RHOS08.GCC                                    : AZIMUTAL DENSITY 8
RHOS09.GCC                                    : AZIMUTAL DENSITY 9
RHOS10.GCC                                    : AZIMUTAL DENSITY 10
RHOS11.GCC                                    : AZIMUTAL DENSITY 11
RHOS12.GCC                                    : AZIMUTAL DENSITY 12
RHOS13.GCC                                    : AZIMUTAL DENSITY 13
RHOS14.GCC                                    : AZIMUTAL DENSITY 14
RHOS15.GCC                                    : AZIMUTAL DENSITY 15
RHOS16.GCC                                    : AZIMUTAL DENSITY 16
WODCLS.PERCENT                                : HYDROGEN CONTENTS CALIBRATION FROM LINESTONE MATRIX
~PARAMETER INFORMATION SECTION
#-----------------------------------------------------------------------------
RTYPE.          √ , » , √√ , 2ÕÕ              : RESEARCH TYPE
DATASRC.        “—  Ó‚ÂÚ                     : DATA SOURCE
DHOLE.          146.00                        : HOLE DIAMETER
GROUP.          ÕÕ¡                           : GROUP NUMBER
ENG1.           ƒ‡Ì¸¯ËÌ Õ.¬.                  : NNB ENGINEER 1
ENG2.                                         : NNB ENGINEER 2
ENG3.                                         : NNB ENGINEER 3
TLMENG1.        «‡˚ÔÓ‚ –.–.                  : TELEMETRY ENGINEER 1
TLMENG2.        ÿ‡ÙË„ÛÎÎËÌ ƒ.».               : TELEMETRY ENGINEER 2
TLMENG3.                                      : TELEMETRY ENGINEER 3
PHONE.          +79172217478                  : PHONE NUMBER
EMAIL.          tng.nnb1@mail.ru              : EMAIL
ADDEMAIL.                                     : ADDITIONAL EMAIL
~A     DEPTH       TVDSS         ROP          GR        P06H        P10L         RHO     RHOIMG#      RHOS01      RHOS02      RHOS03      RHOS04      RHOS05      RHOS06      RHOS07      RHOS08      RHOS09      RHOS10      RHOS11      RHOS12      RHOS13      RHOS14      RHOS15      RHOS16      WODCLS
# ...
    3194.400    2590.546      12.226      63.340     446.150     410.960       2.677      11.047       2.740       2.746       2.752       2.759       2.765       2.767       2.770       2.772       2.774       2.759       2.744       2.730       2.715       2.721       2.727       2.734       8.181
    3194.600    2590.556      14.067      65.672     456.191     389.573       2.672       9.354       2.773       2.773       2.773       2.773       2.773       2.773       2.773       2.773       2.773       2.763       2.752       2.742       2.732       2.742       2.752       2.763       9.034
    3194.800    2590.566      16.511      65.555     466.232     368.187       2.669       8.870       2.732       2.742       2.752       2.763       2.773       2.778       2.783       2.789       2.794       2.773       2.752       2.732       2.711       2.716       2.722       2.727       9.887
    3195.000    2590.576      17.137      62.990     476.274     346.801       2.669       8.386       2.691       2.711       2.732       2.753       2.773       2.783       2.794       2.804       2.814       2.783       2.752       2.722       2.691       2.691       2.691       2.691      10.264
    3195.200    2590.587      16.373      60.424     486.315     325.415       2.678       8.922       2.732       2.742       2.752       2.763       2.773       2.783       2.794       2.804       2.814       2.814       2.814       2.814       2.814       2.794       2.773       2.752       9.163
    3195.400    2590.597      14.444      59.841     496.356     304.029       2.687      15.244       2.676       2.694       2.712       2.729       2.747       2.764       2.782       2.800       2.817       2.796       2.775       2.754       2.732       2.718       2.704       2.690       9.276
    3195.600    2590.607      14.580      61.241     506.398     282.642       2.684      15.369       2.690       2.701       2.712       2.722       2.733       2.747       2.761       2.776       2.790       2.772       2.754       2.736       2.719       2.711       2.704       2.697       9.544
    3195.800    2590.617      15.309      62.640     499.355     269.195       2.675       9.297       2.773       2.763       2.753       2.742       2.732       2.732       2.732       2.732       2.732       2.742       2.752       2.763       2.773       2.773       2.773       2.773       9.544
    3196.000    2590.627      10.789      64.039     477.861     288.695       2.675      13.279       2.757       2.743       2.728       2.713       2.699       2.703       2.707       2.711       2.716       2.730       2.745       2.760       2.774       2.770       2.766       2.762       9.544
    3196.200    2590.637      10.597      65.439     466.526     320.911       2.677      17.260       2.742       2.723       2.703       2.684       2.665       2.674       2.682       2.691       2.699       2.718       2.738       2.757       2.776       2.767       2.759       2.750       9.544
    3196.400    2590.647      14.793      66.871     456.320     299.436       2.680      27.006       2.764       2.738       2.712       2.685       2.659       2.667       2.675       2.683       2.691       2.712       2.733       2.754       2.775       2.773       2.770       2.767       9.544
    3196.600    2590.657      16.095      68.432     456.320     272.455       2.682      22.508       2.825       2.789       2.753       2.716       2.680       2.683       2.685       2.688       2.691       2.712       2.732       2.753       2.774       2.787       2.800       2.812       9.544
    3196.800    2590.667      13.762      70.302     465.139     288.778       2.684      24.564       2.802       2.773       2.744       2.714       2.684       2.680       2.683       2.683       2.681       2.696       2.706       2.719       2.731       2.752       2.774       2.795      10.008
    3197.000    2590.677      10.615      73.104     466.903     280.810       2.687      33.579       2.695       2.690       2.684       2.679       2.669       2.660       2.668       2.667       2.662       2.667       2.654       2.651       2.647       2.670       2.693       2.715      10.726
    3197.200    2590.687      10.309      75.489     485.024     276.023       2.689      22.996       2.588       2.607       2.625       2.644       2.655       2.640       2.653       2.651       2.643       2.637       2.603       2.583       2.563       2.587       2.611       2.635      10.597
    3197.400    2590.697      10.437      71.716     504.971     281.584       2.681      12.412       2.481       2.524       2.566       2.609       2.641       2.619       2.638       2.636       2.624       2.607       2.551       2.515       2.479       2.504       2.530       2.556      10.256
    3197.600    2590.707      11.533      67.319     459.742     291.526       2.662      13.830       2.523       2.555       2.587       2.619       2.643       2.624       2.635       2.631       2.619       2.612       2.576       2.554       2.532       2.548       2.565       2.582       9.915
    3197.800    2590.716      12.412      68.280     432.599     305.071       2.644      15.248       2.565       2.586       2.608       2.629       2.645       2.629       2.633       2.626       2.615       2.617       2.600       2.592       2.585       2.593       2.600       2.607       9.694
    3198.000    2590.726      12.239      69.241     439.836     328.649       2.646      16.665       2.607       2.617       2.628       2.639       2.647       2.633       2.630       2.622       2.611       2.622       2.624       2.631       2.638       2.637       2.635       2.633       9.594
    3198.200    2590.736      11.418      70.202     448.583     354.735       2.713      18.083       2.649       2.649       2.649       2.649       2.649       2.638       2.627       2.617       2.606       2.627       2.649       2.670       2.691       2.681       2.670       2.659       9.468
    3198.400    2590.746      10.519      71.163     455.709     380.820       2.730      38.728       2.677       2.665       2.653       2.642       2.630       2.626       2.623       2.619       2.616       2.637       2.658       2.679       2.701       2.695       2.689       2.683       9.318
    3198.600    2590.755      10.364      70.442     450.309     376.710       2.729      33.288       2.705       2.682       2.658       2.635       2.611       2.615       2.618       2.622       2.625       2.646       2.668       2.689       2.710       2.709       2.708       2.707       9.167
    3198.800    2590.765      10.609      68.040     441.778     342.403       2.728      27.849       2.734       2.698       2.663       2.628       2.592       2.603       2.613       2.624       2.635       2.656       2.677       2.698       2.720       2.723       2.727       2.730       9.017
    3199.000    2590.775      10.947      67.482     433.246     308.097       2.728      22.409       2.762       2.715       2.668       2.620       2.573       2.591       2.609       2.626       2.644       2.665       2.687       2.708       2.729       2.737       2.746       2.754       9.805
    3199.200    2590.784      11.087      68.770     430.762     292.849       2.727      19.586       2.768       2.725       2.683       2.640       2.598       2.611       2.623       2.636       2.649       2.668       2.687       2.706       2.725       2.736       2.746       2.757      11.244
    3199.400    2590.794      11.700      70.058     434.326     353.839       2.726      19.379       2.751       2.730       2.708       2.687       2.666       2.662       2.657       2.653       2.649       2.664       2.678       2.693       2.708       2.719       2.729       2.740      11.531
    3199.600    2590.803      12.099      71.346     429.186     403.126       2.723      19.173       2.734       2.734       2.734       2.734       2.734       2.713       2.691       2.670       2.649       2.659       2.670       2.681       2.691       2.702       2.712       2.723      11.234
