~VERSION INFORMATION SECTION
VERS.           2.0                           : CWLS LOG ASCII STANDARD - VERSION 2.0
WRAP.           NO                            : ONE LINE PER DEPTH STEP
~WELL INFORMATION SECTION
#MNEM.UNIT      VALUE/NAME                    : DESCRIPTION
#-----------------------------------------------------------------------------
STRT.M          3070.200                      : START DEPTH
STOP.M          3404.800                      : STOP DEPTH
STEP.M          0.200                         : STEP
NULL.           -999.250                      : NULL VALUE
COMP.           “‘ ¿Œ "—— "                   : COMPANY
WELL.           61/6                          : WELL
FLD.            Ã‡ÒÚÂ¸ÂÎ¸ÒÍÓÂ                : FIELD
LOC.                                          : LOCATION
CNTY.           Ã‡ÒÚÂ¸ÂÎ¸ÒÍÓÂ                : COUNTY
STAT.                                         : STATE
CTRY.                                         : COUNTRY
SRVC.           ”ÕÕ¡ ŒŒŒ "“Õ√-√ÛÔÔ"          : SERVICE COMPANY
DATE.           2025.08.16                    : LOG DATE
UWI.                                          : UNIQUE WELL ID
API.                                          : API NUMBER
~CURVE INFORMATION SECTION
#MNEM.UNITS     API CODES                     : DESCRIPTION OF MNEMONIC
#-----------------------------------------------------------------------------
DEPTH.M                                       : DEPTH
TVDSS.M                                       : TRUE VERTICAL DEPTH SUBSEA
ROP.M_H                                       : RATE OF PENETRATION
GR.API                                        : GAMMA RAY
P06H.OHMM                                     : PHASE SHIFT RESISTIVITY 0.6 METER SPACING AT 1.8 MHz
P10L.OHMM                                     : PHASE SHIFT RESISTIVITY 1.0 METER SPACING AT 400 KHz
RHO.GCC                                       : DENSITY
RHOIMG#.GCC                                   : RAW DENSITY IMAGE
RHOS01.GCC                                    : AZIMUTAL DENSITY 1
RHOS02.GCC                                    : AZIMUTAL DENSITY 2
RHOS03.GCC                                    : AZIMUTAL DENSITY 3
RHOS04.GCC                                    : AZIMUTAL DENSITY 4
RHOS05.GCC                                    : AZIMUTAL DENSITY 5
RHOS06.GCC                                    : AZIMUTAL DENSITY 6
RHOS07.GCC                                    : AZIMUTAL DENSITY 7
RHOS08.GCC                                    : AZIMUTAL DENSITY 8
RHOS09.GCC                                    : AZIMUTAL DENSITY 9
RHOS10.GCC                                    : AZIMUTAL DENSITY 10
RHOS11.GCC                                    : AZIMUTAL DENSITY 11
RHOS12.GCC                                    : AZIMUTAL DENSITY 12
RHOS13.GCC                                    : AZIMUTAL DENSITY 13
RHOS14.GCC                                    : AZIMUTAL DENSITY 14
RHOS15.GCC                                    : AZIMUTAL DENSITY 15
RHOS16.GCC                                    : AZIMUTAL DENSITY 16
WODCLS.PERCENT                                : HYDROGEN CONTENTS CALIBRATION FROM LINESTONE MATRIX
~PARAMETER INFORMATION SECTION
#-----------------------------------------------------------------------------
RTYPE.          √ , » , √√ , 2ÕÕ              : RESEARCH TYPE
DATASRC.        “—  Ó‚ÂÚ                     : DATA SOURCE
DHOLE.          146.00                        : HOLE DIAMETER
GROUP.          ÕÕ¡                           : GROUP NUMBER
ENG1.           ƒ‡Ì¸¯ËÌ Õ.¬.                  : NNB ENGINEER 1
ENG2.                                         : NNB ENGINEER 2
ENG3.                                         : NNB ENGINEER 3
TLMENG1.        «‡˚ÔÓ‚ –.–.                  : TELEMETRY ENGINEER 1
TLMENG2.        ÿ‡ÙË„ÛÎÎËÌ ƒ.».               : TELEMETRY ENGINEER 2
TLMENG3.                                      : TELEMETRY ENGINEER 3
PHONE.          +79172217478                  : PHONE NUMBER
EMAIL.          tng.nnb1@mail.ru              : EMAIL
ADDEMAIL.                                     : ADDITIONAL EMAIL
~A     DEPTH       TVDSS         ROP          GR        P06H        P10L         RHO     RHOIMG#      RHOS01      RHOS02      RHOS03      RHOS04      RHOS05      RHOS06      RHOS07      RHOS08      RHOS09      RHOS10      RHOS11      RHOS12      RHOS13      RHOS14      RHOS15      RHOS16      WODCLS
# ...
    3383.400    2594.169       9.977      55.192     124.338     159.168       2.624      21.946       2.695       2.684       2.669       2.665       2.659       2.658       2.652       2.652       2.652       2.650       2.649       2.661       2.663       2.661       2.670       2.682      18.579
    3383.600    2594.167       8.486      55.518     125.679     170.223       2.627      18.651       2.691       2.681       2.670       2.659       2.649       2.649       2.649       2.649       2.649       2.649       2.649       2.649       2.649       2.659       2.670       2.681      18.724
    3383.800    2594.165       7.038      55.843    -999.250    -999.250       2.629      28.950       2.632       2.636       2.639       2.642       2.599       2.586       2.593       2.600       2.607       2.620       2.634       2.648       2.635       2.638       2.614       2.656      18.869
    3384.000    2594.163       6.704      56.114    -999.250    -999.250       2.631      31.084       2.599       2.608       2.617       2.626       2.573       2.555       2.562       2.570       2.578       2.599       2.620       2.641       2.626       2.623       2.586       2.637      18.582
    3384.200    2594.161      10.203      56.168    -999.250    -999.250       2.629      25.054       2.590       2.597       2.604       2.611       2.571       2.554       2.557       2.561       2.564       2.585       2.606       2.627       2.621       2.616       2.585       2.621      17.863
    3384.400    2594.159       7.900      56.168    -999.250    -999.250       2.624      19.025       2.581       2.586       2.590       2.595       2.568       2.554       2.553       2.551       2.550       2.571       2.592       2.613       2.616       2.610       2.585       2.605      17.335
    3384.600    2594.157       7.958      56.168    -999.250    -999.250       2.618      12.995       2.573       2.575       2.577       2.579       2.566       2.553       2.548       2.542       2.536       2.557       2.578       2.599       2.611       2.603       2.585       2.590      17.572
    3384.800    2594.155      12.165      56.168    -999.250    -999.250       2.613       6.965       2.564       2.564       2.564       2.564       2.564       2.553       2.543       2.532       2.521       2.542       2.564       2.585       2.606       2.596       2.585       2.574      17.774
    3385.000    2594.153       7.623      56.333    -999.250    -999.250       2.607       6.136       2.560       2.551       2.576       2.567       2.592       2.578       2.564       2.550       2.535       2.557       2.578       2.599       2.620       2.595       2.577       2.558      17.074
    3385.200    2594.151       8.519      56.662    -999.250    -999.250       2.602       5.308       2.555       2.538       2.588       2.571       2.620       2.603       2.585       2.567       2.550       2.571       2.592       2.613       2.635       2.595       2.568       2.542      16.830
    3385.400    2594.149      10.662      56.990    -999.250    -999.250       2.597       4.479       2.551       2.526       2.600       2.574       2.649       2.628       2.606       2.585       2.564       2.585       2.606       2.628       2.649       2.594       2.560       2.526      17.269
    3385.600    2594.146      13.296      57.319    -999.250    -999.250       2.591       4.635       2.563       2.544       2.602       2.582       2.640       2.625       2.608       2.581       2.583       2.594       2.620       2.638       2.649       2.595       2.561       2.562      17.708
    3385.800    2594.144      10.021      57.511    -999.250    -999.250       2.586       4.790       2.576       2.562       2.603       2.589       2.631       2.623       2.610       2.578       2.603       2.603       2.635       2.648       2.649       2.595       2.561       2.598      17.903
    3386.000    2594.142       8.573      57.159    -999.250    -999.250       2.587       4.946       2.588       2.580       2.605       2.597       2.622       2.620       2.612       2.574       2.622       2.612       2.649       2.659       2.649       2.595       2.562       2.635      17.123
    3386.200    2594.140       8.138      56.671    -999.250    -999.250       2.593       5.101       2.600       2.598       2.607       2.604       2.613       2.618       2.614       2.570       2.642       2.621       2.663       2.669       2.649       2.595       2.562       2.671      16.322
    3386.400    2594.138      12.605      56.183    -999.250    -999.250       2.591       9.504       2.620       2.617       2.614       2.611       2.608       2.617       2.619       2.592       2.650       2.640       2.677       2.687       2.677       2.635       2.605       2.683      16.013
    3386.600    2594.135      11.919      55.695    -999.250    -999.250       2.583      18.154       2.649       2.638       2.628       2.617       2.606       2.617       2.628       2.638       2.649       2.670       2.691       2.713       2.734       2.712       2.691       2.670      15.975
    3386.800    2594.133      10.467      55.207    -999.250    -999.250       2.591      18.129       2.649       2.644       2.640       2.635       2.631       2.632       2.634       2.635       2.637       2.652       2.667       2.682       2.697       2.685       2.673       2.661      15.936
    3387.000    2594.131       9.198      54.719    -999.250    -999.250       2.604      18.105       2.649       2.650       2.652       2.653       2.655       2.647       2.640       2.632       2.624       2.634       2.643       2.652       2.661       2.658       2.655       2.652      15.898
    3387.200    2594.129       9.274      54.230    -999.250    -999.250       2.624      18.080       2.649       2.656       2.664       2.672       2.679       2.662       2.646       2.629       2.612       2.615       2.618       2.621       2.624       2.631       2.637       2.643      15.859
    3387.400    2594.126       9.122      53.742    -999.250    -999.250       2.645      18.073       2.649       2.652       2.656       2.659       2.663       2.649       2.635       2.620       2.606       2.613       2.620       2.627       2.635       2.638       2.642       2.645    -999.250
    3387.600    2594.124       7.653      53.327    -999.250    -999.250       2.656      18.082       2.649       2.638       2.628       2.617       2.606       2.606       2.606       2.606       2.606       2.628       2.649       2.670       2.691       2.681       2.670       2.659    -999.250
    3387.800    2594.122       7.292      53.202    -999.250    -999.250       2.624      18.651       2.691       2.681       2.670       2.659       2.649       2.649       2.649       2.649       2.649       2.649       2.649       2.649       2.649       2.659       2.670       2.681    -999.250
    3388.000    2594.119       8.974      53.288    -999.250    -999.250       2.606      21.086       2.720       2.712       2.704       2.697       2.689       2.659       2.635       2.628       2.630       2.622       2.623       2.641       2.665       2.679       2.693       2.706    -999.250
    3388.200    2594.117      11.064      53.927    -999.250    -999.250       2.615      23.521       2.748       2.743       2.739       2.734       2.730       2.670       2.622       2.608       2.611       2.596       2.598       2.634       2.682       2.698       2.715       2.732    -999.250
    3388.400    2594.115      11.086      54.902    -999.250    -999.250       2.623      25.956       2.776       2.775       2.773       2.772       2.770       2.681       2.608       2.587       2.591       2.569       2.572       2.627       2.699       2.718       2.738       2.757    -999.250
    3388.600    -999.250       8.623      56.666    -999.250    -999.250       2.631      24.311       2.757       2.754       2.750       2.747       2.743       2.670       2.610       2.590       2.590       2.576       2.582       2.628       2.688       2.705       2.723       2.740    -999.250
