~VERSION INFORMATION SECTION
VERS.           2.0                           : CWLS LOG ASCII STANDARD - VERSION 2.0
WRAP.           NO                            : ONE LINE PER DEPTH STEP
~WELL INFORMATION SECTION
#MNEM.UNIT      VALUE/NAME                    : DESCRIPTION
#-----------------------------------------------------------------------------
STRT.M          3070.200                      : START DEPTH
STOP.M          3404.800                      : STOP DEPTH
STEP.M          0.200                         : STEP
NULL.           -999.250                      : NULL VALUE
COMP.           “‘ ¿Œ "—— "                   : COMPANY
WELL.           61/6                          : WELL
FLD.            Ã‡ÒÚÂ¸ÂÎ¸ÒÍÓÂ                : FIELD
LOC.                                          : LOCATION
CNTY.           Ã‡ÒÚÂ¸ÂÎ¸ÒÍÓÂ                : COUNTY
STAT.                                         : STATE
CTRY.                                         : COUNTRY
SRVC.           ”ÕÕ¡ ŒŒŒ "“Õ√-√ÛÔÔ"          : SERVICE COMPANY
DATE.           2025.08.16                    : LOG DATE
UWI.                                          : UNIQUE WELL ID
API.                                          : API NUMBER
~CURVE INFORMATION SECTION
#MNEM.UNITS     API CODES                     : DESCRIPTION OF MNEMONIC
#-----------------------------------------------------------------------------
DEPTH.M                                       : DEPTH
TVDSS.M                                       : TRUE VERTICAL DEPTH SUBSEA
ROP.M_H                                       : RATE OF PENETRATION
GR.API                                        : GAMMA RAY
P06H.OHMM                                     : PHASE SHIFT RESISTIVITY 0.6 METER SPACING AT 1.8 MHz
P10L.OHMM                                     : PHASE SHIFT RESISTIVITY 1.0 METER SPACING AT 400 KHz
RHO.GCC                                       : DENSITY
RHOIMG#.GCC                                   : RAW DENSITY IMAGE
RHOS01.GCC                                    : AZIMUTAL DENSITY 1
RHOS02.GCC                                    : AZIMUTAL DENSITY 2
RHOS03.GCC                                    : AZIMUTAL DENSITY 3
RHOS04.GCC                                    : AZIMUTAL DENSITY 4
RHOS05.GCC                                    : AZIMUTAL DENSITY 5
RHOS06.GCC                                    : AZIMUTAL DENSITY 6
RHOS07.GCC                                    : AZIMUTAL DENSITY 7
RHOS08.GCC                                    : AZIMUTAL DENSITY 8
RHOS09.GCC                                    : AZIMUTAL DENSITY 9
RHOS10.GCC                                    : AZIMUTAL DENSITY 10
RHOS11.GCC                                    : AZIMUTAL DENSITY 11
RHOS12.GCC                                    : AZIMUTAL DENSITY 12
RHOS13.GCC                                    : AZIMUTAL DENSITY 13
RHOS14.GCC                                    : AZIMUTAL DENSITY 14
RHOS15.GCC                                    : AZIMUTAL DENSITY 15
RHOS16.GCC                                    : AZIMUTAL DENSITY 16
WODCLS.PERCENT                                : HYDROGEN CONTENTS CALIBRATION FROM LINESTONE MATRIX
~PARAMETER INFORMATION SECTION
#-----------------------------------------------------------------------------
RTYPE.          √ , » , √√ , 2ÕÕ              : RESEARCH TYPE
DATASRC.        “—  Ó‚ÂÚ                     : DATA SOURCE
DHOLE.          146.00                        : HOLE DIAMETER
GROUP.          ÕÕ¡                           : GROUP NUMBER
ENG1.           ƒ‡Ì¸¯ËÌ Õ.¬.                  : NNB ENGINEER 1
ENG2.                                         : NNB ENGINEER 2
ENG3.                                         : NNB ENGINEER 3
TLMENG1.        «‡˚ÔÓ‚ –.–.                  : TELEMETRY ENGINEER 1
TLMENG2.        ÿ‡ÙË„ÛÎÎËÌ ƒ.».               : TELEMETRY ENGINEER 2
TLMENG3.                                      : TELEMETRY ENGINEER 3
PHONE.          +79172217478                  : PHONE NUMBER
EMAIL.          tng.nnb1@mail.ru              : EMAIL
ADDEMAIL.                                     : ADDITIONAL EMAIL
~A     DEPTH       TVDSS         ROP          GR        P06H        P10L         RHO     RHOIMG#      RHOS01      RHOS02      RHOS03      RHOS04      RHOS05      RHOS06      RHOS07      RHOS08      RHOS09      RHOS10      RHOS11      RHOS12      RHOS13      RHOS14      RHOS15      RHOS16      WODCLS
# ...
    3156.600    2588.426       6.601      60.120     211.831     306.676       2.635      17.373       2.582       2.602       2.622       2.642       2.661       2.667       2.674       2.681       2.687       2.669       2.651       2.633       2.615       2.607       2.599       2.590      13.828
    3156.800    2588.435       6.978      59.746     223.836     336.392       2.639      17.848       2.616       2.637       2.659       2.680       2.701       2.698       2.696       2.694       2.691       2.673       2.655       2.637       2.619       2.618       2.617       2.616      13.763
    3157.000    2588.444       7.477      57.885     238.393     370.496       2.639      18.459       2.683       2.705       2.727       2.749       2.771       2.752       2.733       2.714       2.695       2.681       2.666       2.651       2.636       2.647       2.659       2.671      13.221
    3157.200    2588.453       9.928      55.655     248.709     403.265       2.632      19.720       2.706       2.721       2.737       2.754       2.770       2.744       2.719       2.693       2.668       2.662       2.656       2.650       2.645       2.660       2.675       2.691      12.014
    3157.400    2588.463       8.995      53.800     250.541     429.357       2.623      21.211       2.642       2.636       2.641       2.626       2.620       2.608       2.595       2.593       2.571       2.587       2.603       2.619       2.635       2.637       2.638       2.640      11.776
    3157.600    2588.472       8.104      54.172     248.132     448.772       2.614      16.864       2.593       2.584       2.586       2.566       2.558       2.549       2.540       2.542       2.524       2.540       2.556       2.571       2.587       2.588       2.590       2.592      12.984
    3157.800    2588.481       9.786      55.457     245.722     466.852       2.607      10.105       2.605       2.611       2.617       2.623       2.629       2.612       2.594       2.577       2.560       2.556       2.552       2.548       2.544       2.560       2.575       2.590      14.205
    3158.000    2588.490      10.465      57.170     243.312     484.931       2.605      10.589       2.620       2.629       2.637       2.644       2.653       2.638       2.622       2.608       2.593       2.588       2.583       2.578       2.573       2.586       2.597       2.609      14.839
    3158.200    2588.499       8.605      57.415     240.902     503.010       2.611      14.829       2.636       2.639       2.642       2.645       2.648       2.641       2.634       2.627       2.620       2.625       2.629       2.634       2.638       2.638       2.637       2.637      15.066
    3158.400    2588.509       6.344      55.749     238.492     521.090       2.625      17.498       2.641       2.643       2.645       2.647       2.649       2.649       2.650       2.650       2.650       2.656       2.663       2.670       2.676       2.668       2.659       2.650      14.936
    3158.600    2588.518       5.197      57.752     236.203     539.170       2.635      17.675       2.623       2.630       2.637       2.643       2.649       2.655       2.662       2.666       2.675       2.673       2.671       2.668       2.666       2.655       2.645       2.634      14.648
    3158.800    2588.527       5.412      61.002     234.518     535.646       2.629      14.839       2.618       2.626       2.635       2.641       2.649       2.653       2.658       2.660       2.667       2.660       2.652       2.645       2.638       2.633       2.628       2.623      14.627
    3159.000    2588.536       5.920      60.458     233.437     488.917       2.623      11.334       2.637       2.640       2.643       2.646       2.649       2.644       2.640       2.638       2.631       2.628       2.624       2.622       2.618       2.623       2.628       2.632      14.774
    3159.200    2588.546       5.289      58.742     233.017     420.585       2.623      12.468       2.647       2.647       2.647       2.647       2.647       2.645       2.644       2.645       2.641       2.636       2.631       2.627       2.623       2.629       2.635       2.641      14.920
    3159.400    2588.555       5.935      57.670     232.849     382.400       2.623      16.983       2.655       2.656       2.657       2.658       2.659       2.663       2.667       2.671       2.675       2.667       2.659       2.651       2.643       2.646       2.649       2.652      14.834
    3159.600    2588.565       4.947      58.706     232.394     374.363       2.619      18.711       2.674       2.681       2.685       2.695       2.702       2.694       2.685       2.679       2.668       2.664       2.659       2.654       2.650       2.656       2.662       2.668      14.283
    3159.800    2588.574       4.395      57.421     231.939     366.326       2.617      18.032       2.658       2.677       2.693       2.714       2.733       2.720       2.707       2.696       2.681       2.673       2.665       2.656       2.648       2.651       2.653       2.656      13.533
    3160.000    2588.583       4.841      52.243     231.483     358.289       2.618      19.008       2.618       2.647       2.675       2.704       2.733       2.731       2.728       2.726       2.723       2.706       2.688       2.670       2.652       2.643       2.637       2.626      12.944
    3160.200    2588.593       5.887      51.560     231.028     350.252       2.631      24.858       2.612       2.639       2.666       2.698       2.729       2.730       2.729       2.734       2.734       2.717       2.700       2.687       2.662       2.648       2.649       2.623      12.551
    3160.400    2588.603       7.032      54.661     230.573     342.215       2.651      30.053       2.524       2.645       2.666       2.694       2.722       2.723       2.722       2.729       2.730       2.720       2.708       2.705       2.679       2.661       2.674       2.634      12.354
    3160.600    2588.612       8.161      56.170     231.356     336.091       2.655      26.103       2.536       2.651       2.665       2.686       2.706       2.712       2.718       2.730       2.734       2.729       2.723       2.723       2.707       2.687       2.686       2.651      12.260
    3160.800    2588.622       9.337      57.000     237.090     337.620       2.640      20.002       2.622       2.639       2.655       2.673       2.691       2.701       2.711       2.724       2.732       2.728       2.724       2.720       2.715       2.692       2.669       2.645      11.898
    3161.000    2588.631       9.282      57.309     244.062     341.063       2.619      14.952       2.570       2.601       2.633       2.664       2.695       2.719       2.744       2.768       2.792       2.764       2.736       2.709       2.681       2.653       2.625       2.598      11.233
    3161.200    2588.641       9.452      56.996     250.710     344.506       2.605      28.010       2.538       2.570       2.602       2.634       2.666       2.651       2.637       2.622       2.607       2.621       2.635       2.650       2.664       2.632       2.601       2.570      10.708
    3161.400    2588.651       7.386      58.011     257.032     347.949       2.608      44.880       2.551       2.560       2.570       2.579       2.587       2.523       2.460       2.395       2.331       2.417       2.501       2.586       2.671       2.641       2.611       2.582      11.184
    3161.600    2588.660       6.466      61.072     263.354     351.392       2.620      28.281       2.574       2.572       2.571       2.569       2.567       2.560       2.552       2.544       2.536       2.568       2.599       2.630       2.661       2.639       2.617       2.596      12.524
    3161.800    2588.670       6.104      63.727     269.676     354.835       2.631      15.530       2.614       2.614       2.615       2.615       2.616       2.638       2.659       2.682       2.704       2.695       2.684       2.674       2.664       2.651       2.638       2.626      13.363
