~VERSION INFORMATION SECTION
VERS.           2.0                           : CWLS LOG ASCII STANDARD - VERSION 2.0
WRAP.           NO                            : ONE LINE PER DEPTH STEP
~WELL INFORMATION SECTION
#MNEM.UNIT      VALUE/NAME                    : DESCRIPTION
#-----------------------------------------------------------------------------
STRT.M          3070.200                      : START DEPTH
STOP.M          3404.800                      : STOP DEPTH
STEP.M          0.200                         : STEP
NULL.           -999.250                      : NULL VALUE
COMP.           “‘ ¿Œ "—— "                   : COMPANY
WELL.           61/6                          : WELL
FLD.            Ã‡ÒÚÂ¸ÂÎ¸ÒÍÓÂ                : FIELD
LOC.                                          : LOCATION
CNTY.           Ã‡ÒÚÂ¸ÂÎ¸ÒÍÓÂ                : COUNTY
STAT.                                         : STATE
CTRY.                                         : COUNTRY
SRVC.           ”ÕÕ¡ ŒŒŒ "“Õ√-√ÛÔÔ"          : SERVICE COMPANY
DATE.           2025.08.16                    : LOG DATE
UWI.                                          : UNIQUE WELL ID
API.                                          : API NUMBER
~CURVE INFORMATION SECTION
#MNEM.UNITS     API CODES                     : DESCRIPTION OF MNEMONIC
#-----------------------------------------------------------------------------
DEPTH.M                                       : DEPTH
TVDSS.M                                       : TRUE VERTICAL DEPTH SUBSEA
ROP.M_H                                       : RATE OF PENETRATION
GR.API                                        : GAMMA RAY
P06H.OHMM                                     : PHASE SHIFT RESISTIVITY 0.6 METER SPACING AT 1.8 MHz
P10L.OHMM                                     : PHASE SHIFT RESISTIVITY 1.0 METER SPACING AT 400 KHz
RHO.GCC                                       : DENSITY
RHOIMG#.GCC                                   : RAW DENSITY IMAGE
RHOS01.GCC                                    : AZIMUTAL DENSITY 1
RHOS02.GCC                                    : AZIMUTAL DENSITY 2
RHOS03.GCC                                    : AZIMUTAL DENSITY 3
RHOS04.GCC                                    : AZIMUTAL DENSITY 4
RHOS05.GCC                                    : AZIMUTAL DENSITY 5
RHOS06.GCC                                    : AZIMUTAL DENSITY 6
RHOS07.GCC                                    : AZIMUTAL DENSITY 7
RHOS08.GCC                                    : AZIMUTAL DENSITY 8
RHOS09.GCC                                    : AZIMUTAL DENSITY 9
RHOS10.GCC                                    : AZIMUTAL DENSITY 10
RHOS11.GCC                                    : AZIMUTAL DENSITY 11
RHOS12.GCC                                    : AZIMUTAL DENSITY 12
RHOS13.GCC                                    : AZIMUTAL DENSITY 13
RHOS14.GCC                                    : AZIMUTAL DENSITY 14
RHOS15.GCC                                    : AZIMUTAL DENSITY 15
RHOS16.GCC                                    : AZIMUTAL DENSITY 16
WODCLS.PERCENT                                : HYDROGEN CONTENTS CALIBRATION FROM LINESTONE MATRIX
~PARAMETER INFORMATION SECTION
#-----------------------------------------------------------------------------
RTYPE.          √ , » , √√ , 2ÕÕ              : RESEARCH TYPE
DATASRC.        “—  Ó‚ÂÚ                     : DATA SOURCE
DHOLE.          146.00                        : HOLE DIAMETER
GROUP.          ÕÕ¡                           : GROUP NUMBER
ENG1.           ƒ‡Ì¸¯ËÌ Õ.¬.                  : NNB ENGINEER 1
ENG2.                                         : NNB ENGINEER 2
ENG3.                                         : NNB ENGINEER 3
TLMENG1.        «‡˚ÔÓ‚ –.–.                  : TELEMETRY ENGINEER 1
TLMENG2.        ÿ‡ÙË„ÛÎÎËÌ ƒ.».               : TELEMETRY ENGINEER 2
TLMENG3.                                      : TELEMETRY ENGINEER 3
PHONE.          +79172217478                  : PHONE NUMBER
EMAIL.          tng.nnb1@mail.ru              : EMAIL
ADDEMAIL.                                     : ADDITIONAL EMAIL
~A     DEPTH       TVDSS         ROP          GR        P06H        P10L         RHO     RHOIMG#      RHOS01      RHOS02      RHOS03      RHOS04      RHOS05      RHOS06      RHOS07      RHOS08      RHOS09      RHOS10      RHOS11      RHOS12      RHOS13      RHOS14      RHOS15      RHOS16      WODCLS
# ...
    3097.200    2583.350      12.868      43.559     777.920     666.875       3.432    -999.250    -999.250    -999.250    -999.250    -999.250    -999.250    -999.250    -999.250    -999.250    -999.250    -999.250    -999.250    -999.250    -999.250    -999.250    -999.250    -999.250      17.188
    3097.400    2583.377      15.507      45.830     111.331    1416.758       3.420    -999.250    -999.250    -999.250    -999.250    -999.250    -999.250    -999.250    -999.250    -999.250    -999.250    -999.250    -999.250    -999.250    -999.250    -999.250    -999.250    -999.250      17.313
    3097.600    2583.404      17.024      47.148       0.233    1916.680       3.408    -999.250    -999.250    -999.250    -999.250    -999.250    -999.250    -999.250    -999.250    -999.250    -999.250    -999.250    -999.250    -999.250    -999.250    -999.250    -999.250    -999.250      17.424
    3097.800    2583.431      19.248      46.812       0.234    2000.000       3.401    -999.250    -999.250    -999.250    -999.250    -999.250    -999.250    -999.250    -999.250    -999.250    -999.250    -999.250    -999.250    -999.250    -999.250    -999.250    -999.250    -999.250      17.523
    3098.000    2583.458      21.224      46.027       0.234    2000.000       3.401    -999.250    -999.250    -999.250    -999.250    -999.250    -999.250    -999.250    -999.250    -999.250    -999.250    -999.250    -999.250    -999.250    -999.250    -999.250    -999.250    -999.250      17.619
    3098.200    2583.485      22.411      45.384     111.329    2000.000       3.409    -999.250    -999.250    -999.250    -999.250    -999.250    -999.250    -999.250    -999.250    -999.250    -999.250    -999.250    -999.250    -999.250    -999.250    -999.250    -999.250    -999.250      17.715
    3098.400    2583.512      26.726      45.561     444.624    2000.000       3.424    -999.250    -999.250    -999.250    -999.250    -999.250    -999.250    -999.250    -999.250    -999.250    -999.250    -999.250    -999.250    -999.250    -999.250    -999.250    -999.250    -999.250      17.811
    3098.600    2583.538      23.922      46.240     889.018    2000.000       3.439    -999.250    -999.250    -999.250    -999.250    -999.250    -999.250    -999.250    -999.250    -999.250    -999.250    -999.250    -999.250    -999.250    -999.250    -999.250    -999.250    -999.250      17.708
    3098.800    2583.565      17.805      46.768    1333.411    2000.000       3.454      17.415       2.493       2.490       2.487       2.484       2.481       2.484       2.488       2.492       2.496       2.495       2.494       2.493       2.493       2.493       2.493       2.493      16.615
    3099.000    2583.592      12.142      47.014    1703.739    2000.000       3.470      19.480       2.520       2.512       2.503       2.494       2.485       2.496       2.507       2.518       2.529       2.527       2.525       2.523       2.520       2.520       2.520       2.520      14.528
    3099.200    2583.618      16.780      45.727    1703.740    2000.000       3.486      21.545       2.548       2.533       2.519       2.504       2.489       2.507       2.526       2.545       2.563       2.559       2.556       2.552       2.548       2.548       2.548       2.548      11.863
    3099.400    2583.644      23.592      42.909    1333.415    2000.000       3.504      23.610       2.576       2.555       2.534       2.514       2.493       2.519       2.545       2.571       2.597       2.592       2.587       2.581       2.576       2.576       2.576       2.576      16.890
    3099.600    2583.671      21.381      40.642     889.025    2000.000       3.503      25.673       2.604       2.577       2.550       2.524       2.497       2.530       2.564       2.597       2.631       2.624       2.617       2.611       2.604       2.604       2.604       2.604      27.193
    3099.800    2583.697      25.428      43.566     389.086    2000.000       3.461      27.745       2.632       2.599       2.566       2.534       2.501       2.542       2.583       2.624       2.665       2.656       2.648       2.640       2.632       2.632       2.632       2.632      28.279
    3100.000    2583.723      22.427      48.270     166.891    2000.000       3.417      29.782       2.660       2.621       2.582       2.544       2.505       2.553       2.602       2.650       2.698       2.689       2.679       2.669       2.660       2.660       2.660       2.660      22.264
    3100.200    2583.749      21.731      49.700     444.635    2000.000       3.284      31.950       2.687       2.643       2.597       2.553       2.508       2.564       2.620       2.676       2.732       2.721       2.710       2.699       2.688       2.687       2.687       2.687      18.914
    3100.400    2583.775      19.267      50.411     889.025    2000.000       2.926      33.633       2.715       2.666       2.616       2.567       2.517       2.579       2.640       2.702       2.764       2.751       2.739       2.727       2.714       2.714       2.714       2.714      18.648
    3100.600    2583.801      15.735      51.122    1333.415    2000.000       2.473      37.122       2.744       2.683       2.622       2.561       2.500       2.577       2.653       2.730       2.807       2.792       2.777       2.762       2.748       2.747       2.746       2.745      17.834
    3100.800    2583.827      17.435      51.832    1707.443    2000.000       2.119      31.975       2.769       2.729       2.690       2.651       2.612       2.658       2.705       2.752       2.798       2.786       2.774       2.762       2.749       2.754       2.759       2.764      17.427
    3101.000    2583.853      23.246      52.632    1729.662    1909.215       1.975      16.007       2.839       2.852       2.864       2.876       2.888       2.866       2.845       2.824       2.802       2.799       2.796       2.793       2.790       2.803       2.815       2.827      17.630
    3101.200    2583.878      18.843      53.714    1400.073    1636.862       2.525      10.736       2.947       2.960       2.972       2.984       2.996       2.978       2.961       2.943       2.926       2.926       2.927       2.927       2.928       2.933       2.938       2.943      18.348
    3101.400    2583.904      17.298      55.725    1000.122    1273.724       3.231      12.729       2.986       2.983       2.980       2.977       2.974       2.978       2.982       2.987       2.991       2.991       2.991       2.991       2.990       2.989       2.988       2.987      19.094
    3101.600    2583.930      17.617      54.654     600.170     910.587       3.396      12.237       2.978       2.979       2.979       2.979       2.980       2.979       2.979       2.978       2.978       2.978       2.978       2.978       2.978       2.978       2.978       2.978      19.449
    3101.800    2583.955      16.771      50.253     270.581     547.450       3.382      12.296       2.979       2.979       2.979       2.979       2.979       2.979       2.979       2.979       2.979       2.979       2.979       2.979       2.979       2.979       2.979       2.979      22.098
    3102.000    2583.980      14.599      47.946     292.800     218.768       3.375      12.280       2.979       2.979       2.979       2.979       2.979       2.979       2.979       2.979       2.979       2.979       2.979       2.979       2.979       2.979       2.979       2.979      24.183
    3102.200    2584.006      16.032      47.596     666.828      62.362       3.483      12.289       2.979       2.979       2.979       2.979       2.979       2.979       2.979       2.979       2.979       2.979       2.979       2.979       2.979       2.979       2.979       2.979      22.181
    3102.400    2584.031      16.542      47.596    1111.219      78.233       3.583      12.286       2.979       2.979       2.979       2.979       2.979       2.979       2.979       2.979       2.979       2.979       2.979       2.979       2.979       2.979       2.979       2.979      18.771
