~VERSION INFORMATION SECTION
VERS.           2.0                           : CWLS LOG ASCII STANDARD - VERSION 2.0
WRAP.           NO                            : ONE LINE PER DEPTH STEP
~WELL INFORMATION SECTION
#MNEM.UNIT      VALUE/NAME                    : DESCRIPTION
#-----------------------------------------------------------------------------
STRT.M          3070.200                      : START DEPTH
STOP.M          3404.800                      : STOP DEPTH
STEP.M          0.200                         : STEP
NULL.           -999.250                      : NULL VALUE
COMP.           “‘ ¿Œ "—— "                   : COMPANY
WELL.           61/6                          : WELL
FLD.            Ã‡ÒÚÂ¸ÂÎ¸ÒÍÓÂ                : FIELD
LOC.                                          : LOCATION
CNTY.           Ã‡ÒÚÂ¸ÂÎ¸ÒÍÓÂ                : COUNTY
STAT.                                         : STATE
CTRY.                                         : COUNTRY
SRVC.           ”ÕÕ¡ ŒŒŒ "“Õ√-√ÛÔÔ"          : SERVICE COMPANY
DATE.           2025.08.16                    : LOG DATE
UWI.                                          : UNIQUE WELL ID
API.                                          : API NUMBER
~CURVE INFORMATION SECTION
#MNEM.UNITS     API CODES                     : DESCRIPTION OF MNEMONIC
#-----------------------------------------------------------------------------
DEPTH.M                                       : DEPTH
TVDSS.M                                       : TRUE VERTICAL DEPTH SUBSEA
ROP.M_H                                       : RATE OF PENETRATION
GR.API                                        : GAMMA RAY
P06H.OHMM                                     : PHASE SHIFT RESISTIVITY 0.6 METER SPACING AT 1.8 MHz
P10L.OHMM                                     : PHASE SHIFT RESISTIVITY 1.0 METER SPACING AT 400 KHz
RHO.GCC                                       : DENSITY
RHOIMG#.GCC                                   : RAW DENSITY IMAGE
RHOS01.GCC                                    : AZIMUTAL DENSITY 1
RHOS02.GCC                                    : AZIMUTAL DENSITY 2
RHOS03.GCC                                    : AZIMUTAL DENSITY 3
RHOS04.GCC                                    : AZIMUTAL DENSITY 4
RHOS05.GCC                                    : AZIMUTAL DENSITY 5
RHOS06.GCC                                    : AZIMUTAL DENSITY 6
RHOS07.GCC                                    : AZIMUTAL DENSITY 7
RHOS08.GCC                                    : AZIMUTAL DENSITY 8
RHOS09.GCC                                    : AZIMUTAL DENSITY 9
RHOS10.GCC                                    : AZIMUTAL DENSITY 10
RHOS11.GCC                                    : AZIMUTAL DENSITY 11
RHOS12.GCC                                    : AZIMUTAL DENSITY 12
RHOS13.GCC                                    : AZIMUTAL DENSITY 13
RHOS14.GCC                                    : AZIMUTAL DENSITY 14
RHOS15.GCC                                    : AZIMUTAL DENSITY 15
RHOS16.GCC                                    : AZIMUTAL DENSITY 16
WODCLS.PERCENT                                : HYDROGEN CONTENTS CALIBRATION FROM LINESTONE MATRIX
~PARAMETER INFORMATION SECTION
#-----------------------------------------------------------------------------
RTYPE.          √ , » , √√ , 2ÕÕ              : RESEARCH TYPE
DATASRC.        “—  Ó‚ÂÚ                     : DATA SOURCE
DHOLE.          146.00                        : HOLE DIAMETER
GROUP.          ÕÕ¡                           : GROUP NUMBER
ENG1.           ƒ‡Ì¸¯ËÌ Õ.¬.                  : NNB ENGINEER 1
ENG2.                                         : NNB ENGINEER 2
ENG3.                                         : NNB ENGINEER 3
TLMENG1.        «‡˚ÔÓ‚ –.–.                  : TELEMETRY ENGINEER 1
TLMENG2.        ÿ‡ÙË„ÛÎÎËÌ ƒ.».               : TELEMETRY ENGINEER 2
TLMENG3.                                      : TELEMETRY ENGINEER 3
PHONE.          +79172217478                  : PHONE NUMBER
EMAIL.          tng.nnb1@mail.ru              : EMAIL
ADDEMAIL.                                     : ADDITIONAL EMAIL
~A     DEPTH       TVDSS         ROP          GR        P06H        P10L         RHO     RHOIMG#      RHOS01      RHOS02      RHOS03      RHOS04      RHOS05      RHOS06      RHOS07      RHOS08      RHOS09      RHOS10      RHOS11      RHOS12      RHOS13      RHOS14      RHOS15      RHOS16      WODCLS
# ...
    3135.000    2587.268      11.730      33.510     345.693     413.100       2.053      35.258       2.186       2.166       2.146       2.126       2.106       2.143       2.180       2.218       2.256       2.225       2.194       2.163       2.132       2.145       2.159       2.172      23.719
    3135.200    2587.283      11.363      27.743     384.008     477.782       2.047      35.163       2.186       2.180       2.175       2.170       2.165       2.186       2.206       2.227       2.248       2.217       2.186       2.155       2.124       2.139       2.155       2.170      24.853
    3135.400    2587.298      10.720      23.363     429.480     448.501       2.047      35.239       2.186       2.195       2.205       2.214       2.225       2.229       2.232       2.236       2.240       2.208       2.177       2.145       2.114       2.132       2.150       2.168      24.756
    3135.600    2587.312      11.467      25.914     353.901     338.747       2.106      35.011       2.186       2.208       2.231       2.253       2.276       2.264       2.253       2.240       2.229       2.199       2.170       2.140       2.110       2.130       2.148       2.167      23.569
    3135.800    2587.327      12.279      34.492     276.248     289.733       2.082      32.279       2.191       2.206       2.222       2.238       2.253       2.237       2.221       2.205       2.190       2.182       2.175       2.167       2.160       2.167       2.175       2.183      22.855
    3136.000    2587.341      12.265      40.075     272.462     268.668       1.974      27.050       2.200       2.186       2.172       2.159       2.145       2.137       2.128       2.120       2.112       2.152       2.191       2.231       2.270       2.253       2.235       2.218      22.860
    3136.200    2587.355      12.424      42.092     285.388     284.409       1.933      21.457       2.209       2.175       2.142       2.109       2.075       2.074       2.072       2.071       2.070       2.140       2.210       2.281       2.351       2.315       2.280       2.244      23.008
    3136.400    2587.369      13.280      50.280     294.668     304.577       1.933      15.426       2.213       2.191       2.169       2.147       2.125       2.125       2.126       2.126       2.126       2.178       2.230       2.282       2.335       2.304       2.274       2.244      22.528
    3136.600    2587.383      14.191      57.735     281.875     310.076       2.084       9.830       2.221       2.221       2.221       2.221       2.221       2.221       2.221       2.221       2.222       2.238       2.255       2.272       2.288       2.272       2.255       2.238      19.250
    3136.800    2587.397      13.647      54.436     252.631     297.902       2.230       9.696       2.270       2.280       2.290       2.300       2.310       2.313       2.315       2.318       2.321       2.316       2.311       2.307       2.301       2.293       2.285       2.277      14.141
    3137.000    2587.411      12.058      50.115     218.054     318.233       2.395      14.596       2.361       2.371       2.382       2.392       2.402       2.411       2.419       2.427       2.435       2.419       2.404       2.389       2.373       2.370       2.367       2.364      11.478
    3137.200    2587.425      13.690      49.183     216.697     356.740       2.584      17.764       2.495       2.497       2.500       2.502       2.505       2.523       2.542       2.561       2.579       2.570       2.562       2.553       2.545       2.532       2.519       2.507      11.519
    3137.400    2587.438      13.294      49.372     273.863     369.846       2.626      18.264       2.621       2.613       2.606       2.598       2.590       2.619       2.647       2.675       2.704       2.709       2.715       2.720       2.726       2.699       2.673       2.647      12.373
    3137.600    2587.452      12.051      50.411     288.166     359.358       2.636      18.259       2.654       2.645       2.638       2.629       2.621       2.647       2.674       2.701       2.727       2.732       2.738       2.743       2.749       2.725       2.701       2.678      13.458
    3137.800    2587.466      13.611      52.010     257.557     335.409       2.640      18.263       2.648       2.643       2.639       2.634       2.630       2.649       2.669       2.689       2.708       2.706       2.704       2.703       2.700       2.687       2.674       2.661      14.389
    3138.000    2587.479      12.445      53.318     250.076     314.968       2.633      18.135       2.649       2.647       2.646       2.644       2.644       2.657       2.671       2.685       2.698       2.691       2.683       2.676       2.669       2.664       2.659       2.654      14.969
    3138.200    2587.492      11.273      54.060     248.961     294.086       2.627      16.216       2.643       2.647       2.652       2.657       2.661       2.670       2.680       2.689       2.698       2.686       2.674       2.662       2.650       2.648       2.646       2.644      14.660
    3138.400    2587.505      10.907      53.939     248.218     291.849       2.626      14.177       2.631       2.644       2.658       2.671       2.684       2.691       2.697       2.703       2.709       2.694       2.679       2.664       2.649       2.644       2.640       2.635      13.991
    3138.600    2587.519      10.532      53.375     249.036     313.902       2.626      15.157       2.618       2.642       2.665       2.689       2.711       2.715       2.717       2.720       2.723       2.704       2.685       2.667       2.649       2.641       2.634       2.626      13.749
    3138.800    2587.532      10.033      53.334     248.812     321.715       2.628      18.630       2.606       2.635       2.664       2.693       2.722       2.724       2.726       2.728       2.730       2.709       2.689       2.669       2.649       2.638       2.628       2.617      13.536
    3139.000    2587.545       9.246      53.939     248.218     317.402       2.645      27.031       2.592       2.618       2.643       2.668       2.694       2.700       2.707       2.714       2.721       2.703       2.685       2.667       2.649       2.635       2.620       2.607      13.302
    3139.200    2587.557       9.382      54.102     249.652     326.695       2.659      29.930       2.577       2.594       2.612       2.629       2.647       2.661       2.675       2.690       2.704       2.690       2.676       2.662       2.648       2.630       2.612       2.595      13.318
    3139.400    2587.570      10.878      53.085     253.349     333.046       2.650      21.004       2.570       2.582       2.593       2.605       2.617       2.637       2.657       2.677       2.697       2.686       2.675       2.663       2.652       2.631       2.611       2.590      13.458
    3139.600    2587.583      10.097      52.993     258.174     329.716       2.641      16.734       2.584       2.595       2.605       2.617       2.627       2.649       2.670       2.691       2.712       2.702       2.691       2.681       2.670       2.649       2.627       2.605      13.458
    3139.800    2587.595      10.600      54.646     260.980     323.791       2.644      18.012       2.608       2.616       2.623       2.632       2.640       2.663       2.685       2.708       2.731       2.720       2.709       2.699       2.687       2.668       2.648       2.628      13.414
    3140.000    2587.608      10.389      55.846     261.448     315.609       2.649      17.905       2.635       2.632       2.629       2.627       2.624       2.651       2.679       2.706       2.734       2.723       2.713       2.703       2.692       2.678       2.664       2.649      13.370
    3140.200    2587.620      11.730      55.750     261.948     310.769       2.649      15.620       2.672       2.661       2.650       2.640       2.630       2.653       2.676       2.699       2.722       2.718       2.713       2.708       2.703       2.695       2.687       2.680      13.396
