~VERSION INFORMATION SECTION
VERS.           2.0                           : CWLS LOG ASCII STANDARD - VERSION 2.0
WRAP.           NO                            : ONE LINE PER DEPTH STEP
~WELL INFORMATION SECTION
#MNEM.UNIT      VALUE/NAME                    : DESCRIPTION
#-----------------------------------------------------------------------------
STRT.M          3070.200                      : START DEPTH
STOP.M          3404.800                      : STOP DEPTH
STEP.M          0.200                         : STEP
NULL.           -999.250                      : NULL VALUE
COMP.           “‘ ¿Œ "—— "                   : COMPANY
WELL.           61/6                          : WELL
FLD.            Ã‡ÒÚÂ¸ÂÎ¸ÒÍÓÂ                : FIELD
LOC.                                          : LOCATION
CNTY.           Ã‡ÒÚÂ¸ÂÎ¸ÒÍÓÂ                : COUNTY
STAT.                                         : STATE
CTRY.                                         : COUNTRY
SRVC.           ”ÕÕ¡ ŒŒŒ "“Õ√-√ÛÔÔ"          : SERVICE COMPANY
DATE.           2025.08.16                    : LOG DATE
UWI.                                          : UNIQUE WELL ID
API.                                          : API NUMBER
~CURVE INFORMATION SECTION
#MNEM.UNITS     API CODES                     : DESCRIPTION OF MNEMONIC
#-----------------------------------------------------------------------------
DEPTH.M                                       : DEPTH
TVDSS.M                                       : TRUE VERTICAL DEPTH SUBSEA
ROP.M_H                                       : RATE OF PENETRATION
GR.API                                        : GAMMA RAY
P06H.OHMM                                     : PHASE SHIFT RESISTIVITY 0.6 METER SPACING AT 1.8 MHz
P10L.OHMM                                     : PHASE SHIFT RESISTIVITY 1.0 METER SPACING AT 400 KHz
RHO.GCC                                       : DENSITY
RHOIMG#.GCC                                   : RAW DENSITY IMAGE
RHOS01.GCC                                    : AZIMUTAL DENSITY 1
RHOS02.GCC                                    : AZIMUTAL DENSITY 2
RHOS03.GCC                                    : AZIMUTAL DENSITY 3
RHOS04.GCC                                    : AZIMUTAL DENSITY 4
RHOS05.GCC                                    : AZIMUTAL DENSITY 5
RHOS06.GCC                                    : AZIMUTAL DENSITY 6
RHOS07.GCC                                    : AZIMUTAL DENSITY 7
RHOS08.GCC                                    : AZIMUTAL DENSITY 8
RHOS09.GCC                                    : AZIMUTAL DENSITY 9
RHOS10.GCC                                    : AZIMUTAL DENSITY 10
RHOS11.GCC                                    : AZIMUTAL DENSITY 11
RHOS12.GCC                                    : AZIMUTAL DENSITY 12
RHOS13.GCC                                    : AZIMUTAL DENSITY 13
RHOS14.GCC                                    : AZIMUTAL DENSITY 14
RHOS15.GCC                                    : AZIMUTAL DENSITY 15
RHOS16.GCC                                    : AZIMUTAL DENSITY 16
WODCLS.PERCENT                                : HYDROGEN CONTENTS CALIBRATION FROM LINESTONE MATRIX
~PARAMETER INFORMATION SECTION
#-----------------------------------------------------------------------------
RTYPE.          √ , » , √√ , 2ÕÕ              : RESEARCH TYPE
DATASRC.        “—  Ó‚ÂÚ                     : DATA SOURCE
DHOLE.          146.00                        : HOLE DIAMETER
GROUP.          ÕÕ¡                           : GROUP NUMBER
ENG1.           ƒ‡Ì¸¯ËÌ Õ.¬.                  : NNB ENGINEER 1
ENG2.                                         : NNB ENGINEER 2
ENG3.                                         : NNB ENGINEER 3
TLMENG1.        «‡˚ÔÓ‚ –.–.                  : TELEMETRY ENGINEER 1
TLMENG2.        ÿ‡ÙË„ÛÎÎËÌ ƒ.».               : TELEMETRY ENGINEER 2
TLMENG3.                                      : TELEMETRY ENGINEER 3
PHONE.          +79172217478                  : PHONE NUMBER
EMAIL.          tng.nnb1@mail.ru              : EMAIL
ADDEMAIL.                                     : ADDITIONAL EMAIL
~A     DEPTH       TVDSS         ROP          GR        P06H        P10L         RHO     RHOIMG#      RHOS01      RHOS02      RHOS03      RHOS04      RHOS05      RHOS06      RHOS07      RHOS08      RHOS09      RHOS10      RHOS11      RHOS12      RHOS13      RHOS14      RHOS15      RHOS16      WODCLS
# ...
    3345.600    2594.250       8.637      59.164      73.612      91.447       2.573       6.345       2.606       2.558       2.509       2.461       2.412       2.449       2.496       2.543       2.589       2.591       2.594       2.596       2.598       2.574       2.551       2.528      16.058
    3345.800    2594.252       9.212      60.147      73.983      94.437       2.580       5.098       2.606       2.573       2.539       2.506       2.473       2.483       2.513       2.543       2.572       2.587       2.602       2.617       2.632       2.574       2.517       2.460      15.505
    3346.000    2594.253       9.226      59.238      73.219     100.419       2.592       6.076       2.606       2.588       2.570       2.552       2.533       2.542       2.564       2.585       2.606       2.617       2.628       2.638       2.649       2.606       2.564       2.521      14.953
    3346.200    2594.254       8.110      58.715      72.678     101.700       2.606      22.947       2.612       2.602       2.593       2.584       2.574       2.590       2.606       2.622       2.638       2.641       2.643       2.646       2.649       2.639       2.630       2.621      15.102
    3346.400    2594.255       8.060      58.288      72.359      98.282       2.619      33.191       2.622       2.616       2.609       2.602       2.596       2.601       2.606       2.612       2.617       2.625       2.633       2.641       2.649       2.642       2.635       2.629      15.953
    3346.600    2594.257       7.829      57.861      72.041      94.864       2.617      23.140       2.633       2.629       2.625       2.621       2.617       2.612       2.606       2.601       2.596       2.609       2.622       2.635       2.649       2.645       2.641       2.637      16.669
    3346.800    2594.258       7.554      57.648      72.516      92.986       2.599      13.088       2.643       2.642       2.641       2.639       2.638       2.622       2.606       2.590       2.574       2.593       2.612       2.630       2.649       2.647       2.646       2.645      16.846
    3347.000    2594.259       8.872      57.648      76.169      97.263       2.596       8.007       2.643       2.643       2.643       2.643       2.643       2.625       2.606       2.588       2.569       2.589       2.609       2.629       2.649       2.647       2.646       2.645      16.889
    3347.200    2594.260       9.019      58.398      78.050     100.439       2.606       7.895       2.633       2.633       2.633       2.633       2.633       2.620       2.606       2.593       2.580       2.597       2.614       2.631       2.649       2.645       2.641       2.637      16.931
    3347.400    2594.261       7.592      59.900      77.366     100.973       2.613       7.782       2.622       2.622       2.622       2.622       2.622       2.614       2.606       2.598       2.590       2.605       2.620       2.634       2.649       2.642       2.635       2.629      16.974
    3347.600    2594.262       7.269      55.839      76.681     101.508       2.609       7.670       2.612       2.612       2.612       2.612       2.612       2.609       2.606       2.604       2.601       2.613       2.625       2.637       2.649       2.639       2.630       2.621      17.187
    3347.800    2594.264       7.795      48.897      76.206     102.042       2.601       7.760       2.620       2.613       2.606       2.599       2.592       2.592       2.592       2.592       2.592       2.603       2.613       2.624       2.635       2.631       2.628       2.624      17.571
    3348.000    2594.265      10.672      52.679      76.255      97.330       2.594       8.053       2.649       2.628       2.606       2.585       2.564       2.564       2.564       2.564       2.564       2.574       2.585       2.596       2.606       2.617       2.628       2.638      17.301
    3348.200    2594.266      10.663      58.096      77.574      97.178       2.593       7.086       2.640       2.623       2.607       2.590       2.565       2.565       2.569       2.564       2.572       2.583       2.589       2.600       2.620       2.631       2.632       2.638      16.377
    3348.400    2594.267       8.130      59.330      79.104     103.279       2.596       6.120       2.631       2.619       2.608       2.596       2.566       2.565       2.573       2.564       2.581       2.592       2.594       2.605       2.634       2.644       2.637       2.639      15.664
    3348.600    2594.268       6.910      59.519      79.977      98.269       2.600       5.153       2.623       2.615       2.608       2.601       2.567       2.566       2.578       2.564       2.589       2.600       2.598       2.610       2.647       2.658       2.642       2.639      15.791
    3348.800    2594.269       8.285      59.707      78.653     102.166       2.604       4.186       2.614       2.611       2.609       2.607       2.569       2.567       2.583       2.564       2.598       2.609       2.603       2.614       2.661       2.672       2.646       2.639      16.128
    3349.000    2594.270       7.948      59.896      78.904      97.679       2.608       6.476       2.609       2.607       2.604       2.602       2.568       2.569       2.586       2.570       2.603       2.616       2.614       2.627       2.673       2.677       2.649       2.637      16.466
    3349.200    2594.271       8.093      60.085      80.287      90.331       2.612      12.023       2.607       2.601       2.595       2.588       2.566       2.572       2.585       2.583       2.605       2.622       2.631       2.649       2.682       2.673       2.649       2.632      16.667
    3349.400    2594.272       7.948      60.273      80.676      91.620       2.615      17.569       2.606       2.596       2.585       2.574       2.564       2.574       2.585       2.596       2.606       2.628       2.649       2.670       2.691       2.670       2.649       2.628      16.321
    3349.600    2594.273       9.568      60.462      81.065      92.909       2.616      10.671       2.613       2.605       2.598       2.591       2.583       2.589       2.595       2.601       2.606       2.624       2.642       2.660       2.678       2.662       2.645       2.629      15.952
    3349.800    2594.274       8.074      60.788      81.454      94.198       2.617       3.773       2.619       2.615       2.611       2.607       2.603       2.604       2.605       2.605       2.606       2.621       2.636       2.650       2.665       2.654       2.642       2.631      16.026
    3350.000    2594.275       9.081      61.666      81.843      95.488       2.619       6.950       2.626       2.625       2.624       2.623       2.623       2.619       2.614       2.610       2.606       2.618       2.629       2.641       2.652       2.645       2.639       2.632      16.187
    3350.200    2594.276       7.257      62.022      82.232      96.777       2.619      10.126       2.632       2.635       2.637       2.640       2.642       2.633       2.624       2.615       2.606       2.614       2.623       2.631       2.639       2.637       2.636       2.634      16.341
    3350.400    2594.277       7.896      61.717      82.621      98.066       2.616      13.303       2.639       2.645       2.650       2.656       2.662       2.648       2.634       2.620       2.606       2.611       2.616       2.621       2.626       2.629       2.632       2.636      16.659
    3350.600    2594.278       7.768      61.412      83.010      99.355       2.612      16.480       2.645       2.654       2.663       2.672       2.681       2.663       2.644       2.625       2.606       2.608       2.610       2.611       2.613       2.621       2.629       2.637      17.139
    3350.800    2594.279       6.367      61.108      82.752     100.770       2.608      14.602       2.635       2.645       2.656       2.666       2.677       2.663       2.649       2.635       2.620       2.617       2.613       2.610       2.606       2.613       2.620       2.627      17.264
