~VERSION INFORMATION SECTION
VERS.           2.0                           : CWLS LOG ASCII STANDARD - VERSION 2.0
WRAP.           NO                            : ONE LINE PER DEPTH STEP
~WELL INFORMATION SECTION
#MNEM.UNIT      VALUE/NAME                    : DESCRIPTION
#-----------------------------------------------------------------------------
STRT.M          3070.200                      : START DEPTH
STOP.M          3404.800                      : STOP DEPTH
STEP.M          0.200                         : STEP
NULL.           -999.250                      : NULL VALUE
COMP.           “‘ ¿Œ "—— "                   : COMPANY
WELL.           61/6                          : WELL
FLD.            Ã‡ÒÚÂ¸ÂÎ¸ÒÍÓÂ                : FIELD
LOC.                                          : LOCATION
CNTY.           Ã‡ÒÚÂ¸ÂÎ¸ÒÍÓÂ                : COUNTY
STAT.                                         : STATE
CTRY.                                         : COUNTRY
SRVC.           ”ÕÕ¡ ŒŒŒ "“Õ√-√ÛÔÔ"          : SERVICE COMPANY
DATE.           2025.08.16                    : LOG DATE
UWI.                                          : UNIQUE WELL ID
API.                                          : API NUMBER
~CURVE INFORMATION SECTION
#MNEM.UNITS     API CODES                     : DESCRIPTION OF MNEMONIC
#-----------------------------------------------------------------------------
DEPTH.M                                       : DEPTH
TVDSS.M                                       : TRUE VERTICAL DEPTH SUBSEA
ROP.M_H                                       : RATE OF PENETRATION
GR.API                                        : GAMMA RAY
P06H.OHMM                                     : PHASE SHIFT RESISTIVITY 0.6 METER SPACING AT 1.8 MHz
P10L.OHMM                                     : PHASE SHIFT RESISTIVITY 1.0 METER SPACING AT 400 KHz
RHO.GCC                                       : DENSITY
RHOIMG#.GCC                                   : RAW DENSITY IMAGE
RHOS01.GCC                                    : AZIMUTAL DENSITY 1
RHOS02.GCC                                    : AZIMUTAL DENSITY 2
RHOS03.GCC                                    : AZIMUTAL DENSITY 3
RHOS04.GCC                                    : AZIMUTAL DENSITY 4
RHOS05.GCC                                    : AZIMUTAL DENSITY 5
RHOS06.GCC                                    : AZIMUTAL DENSITY 6
RHOS07.GCC                                    : AZIMUTAL DENSITY 7
RHOS08.GCC                                    : AZIMUTAL DENSITY 8
RHOS09.GCC                                    : AZIMUTAL DENSITY 9
RHOS10.GCC                                    : AZIMUTAL DENSITY 10
RHOS11.GCC                                    : AZIMUTAL DENSITY 11
RHOS12.GCC                                    : AZIMUTAL DENSITY 12
RHOS13.GCC                                    : AZIMUTAL DENSITY 13
RHOS14.GCC                                    : AZIMUTAL DENSITY 14
RHOS15.GCC                                    : AZIMUTAL DENSITY 15
RHOS16.GCC                                    : AZIMUTAL DENSITY 16
WODCLS.PERCENT                                : HYDROGEN CONTENTS CALIBRATION FROM LINESTONE MATRIX
~PARAMETER INFORMATION SECTION
#-----------------------------------------------------------------------------
RTYPE.          √ , » , √√ , 2ÕÕ              : RESEARCH TYPE
DATASRC.        “—  Ó‚ÂÚ                     : DATA SOURCE
DHOLE.          146.00                        : HOLE DIAMETER
GROUP.          ÕÕ¡                           : GROUP NUMBER
ENG1.           ƒ‡Ì¸¯ËÌ Õ.¬.                  : NNB ENGINEER 1
ENG2.                                         : NNB ENGINEER 2
ENG3.                                         : NNB ENGINEER 3
TLMENG1.        «‡˚ÔÓ‚ –.–.                  : TELEMETRY ENGINEER 1
TLMENG2.        ÿ‡ÙË„ÛÎÎËÌ ƒ.».               : TELEMETRY ENGINEER 2
TLMENG3.                                      : TELEMETRY ENGINEER 3
PHONE.          +79172217478                  : PHONE NUMBER
EMAIL.          tng.nnb1@mail.ru              : EMAIL
ADDEMAIL.                                     : ADDITIONAL EMAIL
~A     DEPTH       TVDSS         ROP          GR        P06H        P10L         RHO     RHOIMG#      RHOS01      RHOS02      RHOS03      RHOS04      RHOS05      RHOS06      RHOS07      RHOS08      RHOS09      RHOS10      RHOS11      RHOS12      RHOS13      RHOS14      RHOS15      RHOS16      WODCLS
# ...
    3307.800    2593.857      12.648      59.911     101.672     135.722       2.650       6.654       2.521       2.543       2.564       2.585       2.606       2.617       2.627       2.638       2.649       2.649       2.649       2.649       2.649       2.617       2.585       2.553      14.576
    3308.000    2593.860      13.908      58.528     101.818     133.102       2.640       7.415       2.585       2.596       2.606       2.617       2.627       2.633       2.638       2.643       2.649       2.638       2.628       2.617       2.606       2.601       2.596       2.590      15.275
    3308.200    2593.863      12.028      60.665     101.964     130.481       2.630       8.175       2.649       2.649       2.649       2.649       2.649       2.649       2.649       2.649       2.649       2.627       2.606       2.585       2.564       2.585       2.606       2.627      15.260
    3308.400    2593.866      10.373      62.559     102.110     127.861       2.635       8.181       2.649       2.649       2.649       2.649       2.649       2.649       2.649       2.649       2.649       2.636       2.623       2.610       2.598       2.611       2.623       2.636      15.142
    3308.600    2593.869      10.725      63.329     102.256     125.241       2.642       8.188       2.649       2.649       2.649       2.649       2.649       2.649       2.649       2.649       2.649       2.644       2.640       2.636       2.632       2.636       2.640       2.645      15.324
    3308.800    2593.872      11.521      62.799     102.402     122.620       2.643      10.660       2.649       2.651       2.654       2.657       2.659       2.654       2.649       2.643       2.638       2.638       2.638       2.638       2.638       2.641       2.643       2.646      15.418
    3309.000    2593.875      11.737      60.970     102.475     120.512       2.643      15.599       2.649       2.657       2.665       2.673       2.681       2.665       2.649       2.633       2.617       2.617       2.617       2.617       2.617       2.625       2.633       2.641      15.348
    3309.200    2593.878      10.837      59.572     102.475     118.915       2.641      18.108       2.649       2.659       2.670       2.681       2.691       2.677       2.663       2.649       2.635       2.624       2.613       2.603       2.592       2.606       2.620       2.635      15.278
    3309.400    2593.881      10.102      59.896     102.475     117.318       2.636      18.188       2.649       2.659       2.670       2.681       2.691       2.691       2.691       2.691       2.691       2.659       2.627       2.596       2.564       2.585       2.606       2.628      15.207
    3309.600    2593.884      10.410      60.525     102.475     115.721       2.623      37.144       2.627       2.633       2.638       2.643       2.649       2.649       2.649       2.649       2.649       2.638       2.627       2.617       2.606       2.612       2.617       2.622      15.137
    3309.800    2593.887      11.536      60.650     102.475     114.124       2.611       7.614       2.606       2.606       2.606       2.606       2.606       2.606       2.606       2.606       2.606       2.617       2.627       2.638       2.649       2.638       2.627       2.617      15.104
    3310.000    2593.890      11.305      61.888     102.581     112.527       2.611      12.652       2.606       2.612       2.617       2.622       2.627       2.633       2.638       2.643       2.649       2.649       2.649       2.649       2.649       2.638       2.627       2.617      15.221
    3310.200    2593.893      12.153      64.363     103.107     116.444       2.614      17.691       2.606       2.617       2.627       2.638       2.649       2.659       2.670       2.681       2.691       2.681       2.670       2.659       2.649       2.638       2.627       2.617      15.376
    3310.400    2593.896      13.151      66.558     103.453     124.304       2.615      12.941       2.627       2.628       2.627       2.628       2.627       2.638       2.649       2.659       2.670       2.665       2.659       2.654       2.649       2.643       2.638       2.633      14.509
    3310.600    2593.899      13.146      67.631     102.650     125.876       2.616       8.190       2.649       2.638       2.628       2.617       2.606       2.617       2.627       2.638       2.649       2.649       2.649       2.649       2.649       2.649       2.649       2.649      13.089
    3310.800    2593.902      10.361      67.518     101.585     125.162       2.616       9.989       2.641       2.634       2.628       2.621       2.614       2.623       2.631       2.640       2.649       2.647       2.645       2.643       2.641       2.641       2.641       2.641      13.550
    3311.000    2593.905      10.108      63.783     100.621     121.589       2.617      11.789       2.633       2.630       2.628       2.625       2.622       2.628       2.635       2.642       2.649       2.645       2.641       2.637       2.633       2.633       2.633       2.633      14.493
    3311.200    2593.908      11.235      60.083      99.682     117.301       2.618      13.588       2.626       2.627       2.627       2.628       2.629       2.634       2.639       2.644       2.649       2.643       2.637       2.631       2.626       2.626       2.626       2.626      15.487
    3311.400    2593.911      10.581      60.147      98.743     113.875       2.619      11.221       2.618       2.623       2.627       2.632       2.637       2.640       2.643       2.646       2.649       2.641       2.633       2.626       2.618       2.618       2.618       2.618      16.493
    3311.600    2593.914      12.128      61.031      97.803     113.897       2.619       8.854       2.610       2.619       2.627       2.636       2.645       2.646       2.647       2.648       2.649       2.639       2.629       2.620       2.610       2.610       2.610       2.610      17.089
    3311.800    2593.917      13.033      61.793      96.864     114.781       2.630      10.206       2.606       2.620       2.633       2.646       2.659       2.665       2.670       2.675       2.681       2.662       2.643       2.625       2.606       2.606       2.606       2.606      17.277
    3312.000    2593.920      13.761      62.174      96.033     115.449       2.651      15.277       2.606       2.625       2.643       2.662       2.681       2.697       2.713       2.728       2.744       2.710       2.675       2.641       2.606       2.606       2.606       2.606      17.464
    3312.200    2593.923      13.923      62.174      95.634     115.258       2.658      15.275       2.606       2.625       2.643       2.662       2.681       2.697       2.713       2.728       2.744       2.707       2.670       2.633       2.596       2.598       2.601       2.604      16.662
    3312.400    2593.926      12.049      62.174      95.342     114.851       2.654      10.200       2.606       2.620       2.633       2.646       2.659       2.665       2.670       2.675       2.681       2.654       2.628       2.601       2.574       2.582       2.590       2.598      15.186
    3312.600    2593.929       8.813      62.174      95.051     114.445       2.649      10.616       2.606       2.616       2.626       2.636       2.649       2.647       2.644       2.642       2.652       2.632       2.613       2.593       2.574       2.582       2.590       2.598      14.969
    3312.800    2593.932       8.506      62.174      94.759     114.038       2.644      16.521       2.606       2.614       2.623       2.631       2.649       2.642       2.636       2.630       2.659       2.642       2.626       2.610       2.593       2.596       2.600       2.603      15.007
    3313.000    2593.935       9.191      62.174      94.468     113.632       2.639      22.427       2.606       2.613       2.619       2.626       2.649       2.638       2.628       2.617       2.665       2.652       2.639       2.626       2.613       2.611       2.610       2.608      14.807
