~VERSION INFORMATION SECTION
VERS.           2.0                           : CWLS LOG ASCII STANDARD - VERSION 2.0
WRAP.           NO                            : ONE LINE PER DEPTH STEP
~WELL INFORMATION SECTION
#MNEM.UNIT      VALUE/NAME                    : DESCRIPTION
#-----------------------------------------------------------------------------
STRT.M          3070.200                      : START DEPTH
STOP.M          3404.800                      : STOP DEPTH
STEP.M          0.200                         : STEP
NULL.           -999.250                      : NULL VALUE
COMP.           “‘ ¿Œ "—— "                   : COMPANY
WELL.           61/6                          : WELL
FLD.            Ã‡ÒÚÂ¸ÂÎ¸ÒÍÓÂ                : FIELD
LOC.                                          : LOCATION
CNTY.           Ã‡ÒÚÂ¸ÂÎ¸ÒÍÓÂ                : COUNTY
STAT.                                         : STATE
CTRY.                                         : COUNTRY
SRVC.           ”ÕÕ¡ ŒŒŒ "“Õ√-√ÛÔÔ"          : SERVICE COMPANY
DATE.           2025.08.16                    : LOG DATE
UWI.                                          : UNIQUE WELL ID
API.                                          : API NUMBER
~CURVE INFORMATION SECTION
#MNEM.UNITS     API CODES                     : DESCRIPTION OF MNEMONIC
#-----------------------------------------------------------------------------
DEPTH.M                                       : DEPTH
TVDSS.M                                       : TRUE VERTICAL DEPTH SUBSEA
ROP.M_H                                       : RATE OF PENETRATION
GR.API                                        : GAMMA RAY
P06H.OHMM                                     : PHASE SHIFT RESISTIVITY 0.6 METER SPACING AT 1.8 MHz
P10L.OHMM                                     : PHASE SHIFT RESISTIVITY 1.0 METER SPACING AT 400 KHz
RHO.GCC                                       : DENSITY
RHOIMG#.GCC                                   : RAW DENSITY IMAGE
RHOS01.GCC                                    : AZIMUTAL DENSITY 1
RHOS02.GCC                                    : AZIMUTAL DENSITY 2
RHOS03.GCC                                    : AZIMUTAL DENSITY 3
RHOS04.GCC                                    : AZIMUTAL DENSITY 4
RHOS05.GCC                                    : AZIMUTAL DENSITY 5
RHOS06.GCC                                    : AZIMUTAL DENSITY 6
RHOS07.GCC                                    : AZIMUTAL DENSITY 7
RHOS08.GCC                                    : AZIMUTAL DENSITY 8
RHOS09.GCC                                    : AZIMUTAL DENSITY 9
RHOS10.GCC                                    : AZIMUTAL DENSITY 10
RHOS11.GCC                                    : AZIMUTAL DENSITY 11
RHOS12.GCC                                    : AZIMUTAL DENSITY 12
RHOS13.GCC                                    : AZIMUTAL DENSITY 13
RHOS14.GCC                                    : AZIMUTAL DENSITY 14
RHOS15.GCC                                    : AZIMUTAL DENSITY 15
RHOS16.GCC                                    : AZIMUTAL DENSITY 16
WODCLS.PERCENT                                : HYDROGEN CONTENTS CALIBRATION FROM LINESTONE MATRIX
~PARAMETER INFORMATION SECTION
#-----------------------------------------------------------------------------
RTYPE.          √ , » , √√ , 2ÕÕ              : RESEARCH TYPE
DATASRC.        “—  Ó‚ÂÚ                     : DATA SOURCE
DHOLE.          146.00                        : HOLE DIAMETER
GROUP.          ÕÕ¡                           : GROUP NUMBER
ENG1.           ƒ‡Ì¸¯ËÌ Õ.¬.                  : NNB ENGINEER 1
ENG2.                                         : NNB ENGINEER 2
ENG3.                                         : NNB ENGINEER 3
TLMENG1.        «‡˚ÔÓ‚ –.–.                  : TELEMETRY ENGINEER 1
TLMENG2.        ÿ‡ÙË„ÛÎÎËÌ ƒ.».               : TELEMETRY ENGINEER 2
TLMENG3.                                      : TELEMETRY ENGINEER 3
PHONE.          +79172217478                  : PHONE NUMBER
EMAIL.          tng.nnb1@mail.ru              : EMAIL
ADDEMAIL.                                     : ADDITIONAL EMAIL
~A     DEPTH       TVDSS         ROP          GR        P06H        P10L         RHO     RHOIMG#      RHOS01      RHOS02      RHOS03      RHOS04      RHOS05      RHOS06      RHOS07      RHOS08      RHOS09      RHOS10      RHOS11      RHOS12      RHOS13      RHOS14      RHOS15      RHOS16      WODCLS
# ...
    3232.200    2592.417      10.575      50.425     130.569     212.776       2.604       7.999       2.568       2.580       2.592       2.604       2.616       2.574       2.533       2.492       2.450       2.459       2.467       2.475       2.483       2.505       2.526       2.547      15.445
    3232.400    2592.426      10.712      48.696     128.130     223.477       2.608      10.368       2.578       2.592       2.606       2.620       2.635       2.596       2.557       2.518       2.479       2.482       2.486       2.489       2.493       2.514       2.535       2.557      14.805
    3232.600    2592.436       8.351      51.368     126.910     224.296       2.612      12.737       2.587       2.604       2.620       2.637       2.653       2.617       2.580       2.544       2.507       2.506       2.505       2.504       2.502       2.524       2.545       2.566      15.280
    3232.800    2592.445       6.579      60.046     126.910     185.592       2.593      15.107       2.597       2.616       2.635       2.653       2.672       2.638       2.604       2.570       2.535       2.530       2.524       2.518       2.512       2.533       2.554       2.576      15.064
    3233.000    2592.454       7.273      65.765     129.159     171.987       2.557      17.476       2.606       2.628       2.649       2.670       2.691       2.659       2.628       2.596       2.564       2.553       2.542       2.532       2.521       2.542       2.564       2.585      14.675
    3233.200    2592.464       9.379      63.620     130.087     193.362       2.550      12.765       2.627       2.633       2.638       2.643       2.649       2.627       2.606       2.585       2.564       2.564       2.564       2.564       2.564       2.580       2.596       2.612      14.533
    3233.400    2592.473      10.357      61.474     127.447     198.132       2.551       8.054       2.649       2.638       2.628       2.617       2.606       2.596       2.585       2.574       2.564       2.574       2.585       2.596       2.606       2.617       2.628       2.638      15.381
    3233.600    2592.482      12.026      59.328     124.807     186.297       2.558      13.061       2.649       2.649       2.649       2.649       2.649       2.633       2.617       2.601       2.585       2.590       2.596       2.601       2.606       2.617       2.627       2.638      16.476
    3233.800    2592.491      12.034      57.183     122.127     183.543       2.572      18.068       2.649       2.659       2.670       2.681       2.691       2.670       2.649       2.627       2.606       2.606       2.606       2.606       2.606       2.617       2.627       2.638      17.293
    3234.000    2592.500       8.690      55.037     119.665     189.688       2.606      17.836       2.627       2.643       2.659       2.675       2.691       2.675       2.659       2.643       2.627       2.612       2.596       2.580       2.564       2.580       2.596       2.612      16.995
    3234.200    2592.509       7.619      52.891     118.234     195.099       2.620      17.604       2.606       2.627       2.649       2.670       2.691       2.681       2.670       2.659       2.649       2.617       2.585       2.553       2.521       2.543       2.564       2.585      16.530
    3234.400    2592.518      10.931      53.276     118.254     196.203       2.608      28.974       2.606       2.585       2.564       2.542       2.521       2.548       2.574       2.601       2.627       2.596       2.564       2.532       2.500       2.527       2.553       2.580      16.515
    3234.600    2592.527       9.359      56.190     123.047     180.813       2.601      40.344       2.606       2.543       2.479       2.415       2.351       2.415       2.479       2.543       2.606       2.574       2.543       2.511       2.479       2.511       2.542       2.574      16.584
    3234.800    2592.536       6.502      56.190     124.988     167.012       2.612      29.090       2.578       2.539       2.500       2.461       2.422       2.468       2.514       2.560       2.606       2.585       2.564       2.542       2.521       2.535       2.550       2.564      16.547
    3235.000    2592.545       9.735      53.276     122.882     176.063       2.620      17.835       2.550       2.535       2.521       2.507       2.493       2.521       2.550       2.578       2.606       2.596       2.585       2.574       2.564       2.560       2.557       2.553      16.482
    3235.200    2592.554      12.555      51.818     121.625     187.665       2.620       6.581       2.521       2.532       2.543       2.553       2.564       2.574       2.585       2.596       2.606       2.606       2.606       2.606       2.606       2.585       2.564       2.543      16.365
    3235.400    2592.563      10.231      51.818     121.217     196.106       2.614       6.841       2.542       2.548       2.553       2.558       2.564       2.574       2.585       2.596       2.606       2.612       2.617       2.622       2.627       2.606       2.585       2.564      16.118
    3235.600    2592.572       7.283      52.906     121.013     191.835       2.598       7.101       2.564       2.564       2.564       2.564       2.564       2.574       2.585       2.596       2.606       2.617       2.627       2.638       2.649       2.627       2.606       2.585      16.161
    3235.800    2592.581       4.406      55.081     120.574     174.853       2.566       6.841       2.542       2.548       2.553       2.558       2.564       2.574       2.585       2.596       2.606       2.612       2.617       2.622       2.627       2.606       2.585       2.564      16.674
    3236.000    2592.590       4.950      56.538     118.379     162.617       2.529       6.581       2.521       2.532       2.542       2.553       2.564       2.574       2.585       2.596       2.606       2.606       2.606       2.606       2.606       2.585       2.564       2.543      17.358
    3236.200    2592.598       7.563      57.278     116.492     163.506       2.493      36.408       2.499       2.513       2.527       2.542       2.556       2.577       2.598       2.619       2.640       2.633       2.626       2.619       2.612       2.584       2.556       2.528      17.187
    3236.400    2592.607      11.319      57.227     115.355     172.773       2.475      30.889       2.478       2.495       2.512       2.530       2.547       2.579       2.610       2.642       2.673       2.659       2.645       2.631       2.618       2.583       2.548       2.512      16.802
    3236.600    2592.616      11.751      56.386     119.557     175.094       2.534      25.370       2.456       2.477       2.497       2.518       2.539       2.581       2.623       2.665       2.707       2.686       2.665       2.644       2.623       2.581       2.539       2.497      16.418
    3236.800    2592.625      10.396      55.545     122.860     170.470       2.561      13.531       2.556       2.549       2.542       2.534       2.527       2.555       2.584       2.612       2.640       2.640       2.640       2.640       2.640       2.619       2.598       2.577      16.466
    3237.000    2592.633      10.040      55.007     119.923     165.846       2.557       7.741       2.620       2.603       2.585       2.567       2.550       2.557       2.564       2.571       2.578       2.596       2.613       2.631       2.649       2.642       2.635       2.627      16.947
    3237.200    2592.642       9.844      55.680     116.986     161.222       2.570       7.998       2.649       2.638       2.627       2.617       2.606       2.585       2.564       2.543       2.521       2.553       2.585       2.617       2.649       2.649       2.649       2.649      17.043
    3237.400    2592.650      10.317      54.733     114.048     156.598       2.584       7.993       2.649       2.638       2.628       2.617       2.606       2.585       2.564       2.543       2.521       2.546       2.571       2.596       2.620       2.628       2.635       2.642      16.755
