~VERSION INFORMATION SECTION
VERS.           2.0                           : CWLS LOG ASCII STANDARD - VERSION 2.0
WRAP.           NO                            : ONE LINE PER DEPTH STEP
~WELL INFORMATION SECTION
#MNEM.UNIT      VALUE/NAME                    : DESCRIPTION
#-----------------------------------------------------------------------------
STRT.M          3070.200                      : START DEPTH
STOP.M          3404.800                      : STOP DEPTH
STEP.M          0.200                         : STEP
NULL.           -999.250                      : NULL VALUE
COMP.           “‘ ¿Œ "—— "                   : COMPANY
WELL.           61/6                          : WELL
FLD.            Ã‡ÒÚÂ¸ÂÎ¸ÒÍÓÂ                : FIELD
LOC.                                          : LOCATION
CNTY.           Ã‡ÒÚÂ¸ÂÎ¸ÒÍÓÂ                : COUNTY
STAT.                                         : STATE
CTRY.                                         : COUNTRY
SRVC.           ”ÕÕ¡ ŒŒŒ "“Õ√-√ÛÔÔ"          : SERVICE COMPANY
DATE.           2025.08.16                    : LOG DATE
UWI.                                          : UNIQUE WELL ID
API.                                          : API NUMBER
~CURVE INFORMATION SECTION
#MNEM.UNITS     API CODES                     : DESCRIPTION OF MNEMONIC
#-----------------------------------------------------------------------------
DEPTH.M                                       : DEPTH
TVDSS.M                                       : TRUE VERTICAL DEPTH SUBSEA
ROP.M_H                                       : RATE OF PENETRATION
GR.API                                        : GAMMA RAY
P06H.OHMM                                     : PHASE SHIFT RESISTIVITY 0.6 METER SPACING AT 1.8 MHz
P10L.OHMM                                     : PHASE SHIFT RESISTIVITY 1.0 METER SPACING AT 400 KHz
RHO.GCC                                       : DENSITY
RHOIMG#.GCC                                   : RAW DENSITY IMAGE
RHOS01.GCC                                    : AZIMUTAL DENSITY 1
RHOS02.GCC                                    : AZIMUTAL DENSITY 2
RHOS03.GCC                                    : AZIMUTAL DENSITY 3
RHOS04.GCC                                    : AZIMUTAL DENSITY 4
RHOS05.GCC                                    : AZIMUTAL DENSITY 5
RHOS06.GCC                                    : AZIMUTAL DENSITY 6
RHOS07.GCC                                    : AZIMUTAL DENSITY 7
RHOS08.GCC                                    : AZIMUTAL DENSITY 8
RHOS09.GCC                                    : AZIMUTAL DENSITY 9
RHOS10.GCC                                    : AZIMUTAL DENSITY 10
RHOS11.GCC                                    : AZIMUTAL DENSITY 11
RHOS12.GCC                                    : AZIMUTAL DENSITY 12
RHOS13.GCC                                    : AZIMUTAL DENSITY 13
RHOS14.GCC                                    : AZIMUTAL DENSITY 14
RHOS15.GCC                                    : AZIMUTAL DENSITY 15
RHOS16.GCC                                    : AZIMUTAL DENSITY 16
WODCLS.PERCENT                                : HYDROGEN CONTENTS CALIBRATION FROM LINESTONE MATRIX
~PARAMETER INFORMATION SECTION
#-----------------------------------------------------------------------------
RTYPE.          √ , » , √√ , 2ÕÕ              : RESEARCH TYPE
DATASRC.        “—  Ó‚ÂÚ                     : DATA SOURCE
DHOLE.          146.00                        : HOLE DIAMETER
GROUP.          ÕÕ¡                           : GROUP NUMBER
ENG1.           ƒ‡Ì¸¯ËÌ Õ.¬.                  : NNB ENGINEER 1
ENG2.                                         : NNB ENGINEER 2
ENG3.                                         : NNB ENGINEER 3
TLMENG1.        «‡˚ÔÓ‚ –.–.                  : TELEMETRY ENGINEER 1
TLMENG2.        ÿ‡ÙË„ÛÎÎËÌ ƒ.».               : TELEMETRY ENGINEER 2
TLMENG3.                                      : TELEMETRY ENGINEER 3
PHONE.          +79172217478                  : PHONE NUMBER
EMAIL.          tng.nnb1@mail.ru              : EMAIL
ADDEMAIL.                                     : ADDITIONAL EMAIL
~A     DEPTH       TVDSS         ROP          GR        P06H        P10L         RHO     RHOIMG#      RHOS01      RHOS02      RHOS03      RHOS04      RHOS05      RHOS06      RHOS07      RHOS08      RHOS09      RHOS10      RHOS11      RHOS12      RHOS13      RHOS14      RHOS15      RHOS16      WODCLS
# ...
    3248.400    2593.063      13.312      62.174      96.211     140.738       2.594      17.373       2.564       2.606       2.649       2.691       2.734       2.755       2.776       2.798       2.819       2.776       2.734       2.691       2.649       2.628       2.606       2.585      16.370
    3248.600    2593.069      13.043      62.174      96.575     138.794       2.597      17.532       2.585       2.606       2.628       2.649       2.670       2.691       2.712       2.734       2.755       2.728       2.702       2.675       2.649       2.633       2.617       2.601      16.418
    3248.800    2593.075      11.093      62.057      97.262     128.837       2.604      17.690       2.606       2.606       2.606       2.606       2.606       2.628       2.649       2.670       2.691       2.681       2.670       2.659       2.649       2.638       2.627       2.617      16.418
    3249.000    2593.082      11.841      61.823      98.038     126.290       2.611      37.336       2.635       2.635       2.635       2.635       2.635       2.628       2.620       2.613       2.649       2.606       2.613       2.617       2.620       2.624       2.627       2.631      16.418
    3249.200    2593.088      10.711      61.588      98.647     139.164       2.618      30.917       2.649       2.642       2.636       2.630       2.623       2.611       2.598       2.585       2.635       2.613       2.598       2.610       2.623       2.630       2.636       2.642      16.418
    3249.400    2593.094      10.616      61.354      98.560     140.670       2.625      24.499       2.649       2.630       2.610       2.591       2.572       2.576       2.581       2.585       2.620       2.620       2.623       2.640       2.657       2.655       2.653       2.651      16.225
    3249.600    2593.100      10.095      61.119      98.299     130.807       2.628      18.080       2.649       2.617       2.585       2.553       2.521       2.542       2.564       2.585       2.606       2.627       2.649       2.670       2.691       2.681       2.670       2.659      15.839
    3249.800    2593.105      10.359      60.885      98.038     128.405       2.617      12.363       2.585       2.580       2.574       2.569       2.564       2.580       2.596       2.612       2.627       2.633       2.638       2.643       2.649       2.633       2.617       2.601      15.550
    3250.000    2593.111      11.303      60.808      97.777     133.463       2.606       6.646       2.521       2.542       2.564       2.585       2.606       2.617       2.628       2.638       2.649       2.638       2.628       2.617       2.606       2.585       2.564       2.542      15.646
    3250.200    2593.117      10.520      61.361      98.038     135.110       2.611       9.533       2.553       2.569       2.585       2.601       2.617       2.627       2.638       2.649       2.659       2.646       2.633       2.620       2.606       2.593       2.580       2.566      15.839
    3250.400    2593.123      10.070      62.071      99.061     133.345       2.620      12.421       2.585       2.596       2.606       2.617       2.627       2.638       2.649       2.659       2.670       2.654       2.638       2.622       2.606       2.601       2.596       2.590      16.033
    3250.600    2593.128       9.417      62.782     101.045     132.899       2.629      15.308       2.617       2.622       2.628       2.633       2.638       2.649       2.659       2.670       2.681       2.662       2.643       2.625       2.606       2.609       2.612       2.614      16.129
    3250.800    2593.134      10.382      63.492     103.269     133.771       2.635      18.195       2.649       2.649       2.649       2.649       2.649       2.659       2.670       2.681       2.691       2.670       2.649       2.627       2.606       2.617       2.627       2.638      15.840
    3251.000    2593.140      10.575      64.202     103.955     137.055       2.634      18.348       2.666       2.657       2.649       2.640       2.632       2.638       2.644       2.651       2.657       2.645       2.632       2.619       2.606       2.621       2.636       2.651      15.647
    3251.200    2593.145       8.840      64.913     103.246     142.752       2.630      18.501       2.683       2.666       2.649       2.632       2.615       2.617       2.619       2.621       2.623       2.619       2.615       2.611       2.606       2.625       2.645       2.664      15.647
    3251.400    2593.151       9.480      64.649     103.105     140.582       2.626      18.530       2.686       2.667       2.649       2.630       2.612       2.613       2.614       2.616       2.617       2.614       2.612       2.609       2.606       2.626       2.646       2.666      15.608
    3251.600    2593.156      10.397      63.412     103.105     130.544       2.622      18.434       2.675       2.662       2.649       2.635       2.622       2.626       2.630       2.634       2.638       2.630       2.622       2.614       2.606       2.624       2.641       2.658      15.531
    3251.800    2593.161       9.997      62.192     103.105     120.506       2.623      18.339       2.665       2.657       2.649       2.641       2.633       2.639       2.646       2.653       2.659       2.646       2.633       2.620       2.606       2.621       2.635       2.650      15.466
    3252.000    2593.167      11.633      61.043     103.105     113.028       2.629      18.243       2.654       2.651       2.649       2.646       2.643       2.653       2.662       2.671       2.681       2.662       2.643       2.625       2.606       2.618       2.630       2.642      15.453
    3252.200    2593.172      10.364      59.911     103.105     115.790       2.636      16.755       2.649       2.647       2.646       2.644       2.643       2.652       2.661       2.670       2.679       2.661       2.643       2.624       2.606       2.617       2.628       2.638      15.429
    3252.400    2593.177       7.061      58.779     103.105     121.112       2.645      13.876       2.649       2.644       2.640       2.635       2.631       2.637       2.643       2.649       2.655       2.643       2.631       2.618       2.606       2.617       2.628       2.638      15.380
    3252.600    2593.182       6.371      58.219     103.105     126.433       2.653      10.997       2.649       2.641       2.634       2.626       2.618       2.621       2.624       2.628       2.631       2.624       2.618       2.612       2.606       2.617       2.628       2.638      15.114
    3252.800    2593.187       7.254      59.945     103.424     130.372       2.662       8.118       2.649       2.638       2.628       2.617       2.606       2.606       2.606       2.606       2.606       2.606       2.606       2.606       2.606       2.617       2.628       2.638      15.017
    3253.000    2593.192       7.134      62.243     104.062     132.929       2.670      13.161       2.649       2.643       2.638       2.633       2.627       2.633       2.638       2.643       2.649       2.643       2.638       2.633       2.627       2.633       2.638       2.643      15.308
    3253.200    2593.197       7.125      64.541     104.167     134.802       2.679      18.203       2.649       2.649       2.649       2.649       2.649       2.659       2.670       2.681       2.691       2.681       2.670       2.659       2.649       2.649       2.649       2.649      15.608
    3253.400    2593.201       7.370      66.465     103.600     134.922       2.677      17.723       2.606       2.612       2.617       2.622       2.627       2.649       2.670       2.691       2.712       2.697       2.681       2.665       2.649       2.638       2.627       2.617      15.917
    3253.600    2593.206       7.582      66.894     102.634     133.046       2.665      17.242       2.564       2.574       2.585       2.596       2.606       2.638       2.670       2.702       2.734       2.713       2.691       2.670       2.649       2.627       2.606       2.585      16.174
