~VERSION INFORMATION SECTION
VERS.           2.0                           : CWLS LOG ASCII STANDARD - VERSION 2.0
WRAP.           NO                            : ONE LINE PER DEPTH STEP
~WELL INFORMATION SECTION
#MNEM.UNIT      VALUE/NAME                    : DESCRIPTION
#-----------------------------------------------------------------------------
STRT.M          3070.200                      : START DEPTH
STOP.M          3404.800                      : STOP DEPTH
STEP.M          0.200                         : STEP
NULL.           -999.250                      : NULL VALUE
COMP.           “‘ ¿Œ "—— "                   : COMPANY
WELL.           61/6                          : WELL
FLD.            Ã‡ÒÚÂ¸ÂÎ¸ÒÍÓÂ                : FIELD
LOC.                                          : LOCATION
CNTY.           Ã‡ÒÚÂ¸ÂÎ¸ÒÍÓÂ                : COUNTY
STAT.                                         : STATE
CTRY.                                         : COUNTRY
SRVC.           ”ÕÕ¡ ŒŒŒ "“Õ√-√ÛÔÔ"          : SERVICE COMPANY
DATE.           2025.08.16                    : LOG DATE
UWI.                                          : UNIQUE WELL ID
API.                                          : API NUMBER
~CURVE INFORMATION SECTION
#MNEM.UNITS     API CODES                     : DESCRIPTION OF MNEMONIC
#-----------------------------------------------------------------------------
DEPTH.M                                       : DEPTH
TVDSS.M                                       : TRUE VERTICAL DEPTH SUBSEA
ROP.M_H                                       : RATE OF PENETRATION
GR.API                                        : GAMMA RAY
P06H.OHMM                                     : PHASE SHIFT RESISTIVITY 0.6 METER SPACING AT 1.8 MHz
P10L.OHMM                                     : PHASE SHIFT RESISTIVITY 1.0 METER SPACING AT 400 KHz
RHO.GCC                                       : DENSITY
RHOIMG#.GCC                                   : RAW DENSITY IMAGE
RHOS01.GCC                                    : AZIMUTAL DENSITY 1
RHOS02.GCC                                    : AZIMUTAL DENSITY 2
RHOS03.GCC                                    : AZIMUTAL DENSITY 3
RHOS04.GCC                                    : AZIMUTAL DENSITY 4
RHOS05.GCC                                    : AZIMUTAL DENSITY 5
RHOS06.GCC                                    : AZIMUTAL DENSITY 6
RHOS07.GCC                                    : AZIMUTAL DENSITY 7
RHOS08.GCC                                    : AZIMUTAL DENSITY 8
RHOS09.GCC                                    : AZIMUTAL DENSITY 9
RHOS10.GCC                                    : AZIMUTAL DENSITY 10
RHOS11.GCC                                    : AZIMUTAL DENSITY 11
RHOS12.GCC                                    : AZIMUTAL DENSITY 12
RHOS13.GCC                                    : AZIMUTAL DENSITY 13
RHOS14.GCC                                    : AZIMUTAL DENSITY 14
RHOS15.GCC                                    : AZIMUTAL DENSITY 15
RHOS16.GCC                                    : AZIMUTAL DENSITY 16
WODCLS.PERCENT                                : HYDROGEN CONTENTS CALIBRATION FROM LINESTONE MATRIX
~PARAMETER INFORMATION SECTION
#-----------------------------------------------------------------------------
RTYPE.          √ , » , √√ , 2ÕÕ              : RESEARCH TYPE
DATASRC.        “—  Ó‚ÂÚ                     : DATA SOURCE
DHOLE.          146.00                        : HOLE DIAMETER
GROUP.          ÕÕ¡                           : GROUP NUMBER
ENG1.           ƒ‡Ì¸¯ËÌ Õ.¬.                  : NNB ENGINEER 1
ENG2.                                         : NNB ENGINEER 2
ENG3.                                         : NNB ENGINEER 3
TLMENG1.        «‡˚ÔÓ‚ –.–.                  : TELEMETRY ENGINEER 1
TLMENG2.        ÿ‡ÙË„ÛÎÎËÌ ƒ.».               : TELEMETRY ENGINEER 2
TLMENG3.                                      : TELEMETRY ENGINEER 3
PHONE.          +79172217478                  : PHONE NUMBER
EMAIL.          tng.nnb1@mail.ru              : EMAIL
ADDEMAIL.                                     : ADDITIONAL EMAIL
~A     DEPTH       TVDSS         ROP          GR        P06H        P10L         RHO     RHOIMG#      RHOS01      RHOS02      RHOS03      RHOS04      RHOS05      RHOS06      RHOS07      RHOS08      RHOS09      RHOS10      RHOS11      RHOS12      RHOS13      RHOS14      RHOS15      RHOS16      WODCLS
# ...
    3361.800    2594.295      10.878      61.876      95.455     131.224       2.606       7.840       2.625       2.613       2.602       2.590       2.578       2.586       2.594       2.603       2.611       2.610       2.609       2.607       2.606       2.611       2.616       2.620      17.187
    3362.000    2594.295      10.023      62.488      95.644     132.463       2.607       7.926       2.635       2.627       2.620       2.613       2.606       2.603       2.599       2.596       2.592       2.596       2.599       2.603       2.606       2.613       2.620       2.627      17.104
    3362.200    2594.295       9.359      63.101      95.178     129.170       2.612       8.012       2.644       2.642       2.639       2.637       2.635       2.619       2.604       2.589       2.573       2.581       2.590       2.598       2.606       2.616       2.625       2.635      16.880
    3362.400    2594.294      11.383      63.356      95.930     142.091       2.617       7.834       2.627       2.622       2.617       2.612       2.606       2.601       2.596       2.590       2.585       2.596       2.606       2.617       2.627       2.628       2.628       2.627      16.572
    3362.600    2594.294      10.049      62.182      97.269     165.880       2.609       7.349       2.585       2.585       2.585       2.585       2.585       2.590       2.596       2.601       2.606       2.606       2.606       2.606       2.606       2.601       2.596       2.590      16.995
    3362.800    2594.294      10.420      60.572      98.693     159.317       2.602       7.409       2.592       2.596       2.599       2.603       2.606       2.603       2.599       2.596       2.592       2.589       2.585       2.581       2.578       2.581       2.585       2.589      16.995
    3363.000    2594.293       9.896      58.649      99.607     160.981       2.595       8.054       2.649       2.638       2.627       2.617       2.606       2.596       2.585       2.574       2.564       2.574       2.585       2.596       2.606       2.617       2.627       2.638      16.514
    3363.200    2594.293      12.414      57.377      98.247     140.476       2.579       8.054       2.649       2.638       2.627       2.617       2.606       2.596       2.585       2.574       2.564       2.574       2.585       2.596       2.606       2.617       2.627       2.638      16.707
    3363.400    2594.292      11.513      56.837      97.075     124.174       2.572       7.830       2.627       2.617       2.606       2.596       2.585       2.585       2.585       2.585       2.585       2.590       2.596       2.601       2.606       2.612       2.617       2.622      17.059
    3363.600    2594.292       8.706      57.928      98.239     138.458       2.580       7.605       2.606       2.596       2.585       2.574       2.564       2.574       2.585       2.596       2.606       2.606       2.606       2.606       2.606       2.606       2.606       2.606      17.450
    3363.800    2594.292       7.575      59.863      97.944     140.654       2.584       7.830       2.627       2.617       2.606       2.596       2.585       2.585       2.585       2.585       2.585       2.590       2.596       2.601       2.606       2.612       2.617       2.622      17.352
    3364.000    2594.291      11.901      58.649      97.068     145.266       2.582       8.054       2.649       2.638       2.627       2.617       2.606       2.596       2.585       2.574       2.564       2.574       2.585       2.596       2.606       2.617       2.628       2.638      17.132
    3364.200    2594.291       9.876      57.648      96.782     191.805       2.580       7.755       2.620       2.610       2.599       2.589       2.578       2.581       2.585       2.589       2.592       2.596       2.599       2.603       2.606       2.610       2.613       2.617      16.913
    3364.400    2594.290      11.588      57.898      96.211     188.453       2.585       7.734       2.617       2.609       2.601       2.593       2.585       2.590       2.596       2.601       2.606       2.606       2.606       2.606       2.606       2.609       2.612       2.614      16.940
    3364.600    2594.290      12.453      59.149      96.211     169.874       2.585       7.990       2.638       2.635       2.633       2.630       2.627       2.622       2.617       2.612       2.606       2.606       2.606       2.606       2.606       2.614       2.622       2.630      17.215
    3364.800    2594.289      10.685      59.900      96.782     154.781       2.576       8.121       2.649       2.642       2.635       2.628       2.620       2.617       2.613       2.610       2.606       2.610       2.613       2.617       2.620       2.628       2.635       2.642      17.489
    3365.000    2594.289      12.849      58.525      97.944     139.215       2.578       8.125       2.649       2.627       2.606       2.585       2.564       2.574       2.585       2.596       2.606       2.617       2.627       2.638       2.649       2.649       2.649       2.649      17.654
    3365.200    2594.288      12.389      59.911      99.421     137.104       2.583       7.961       2.637       2.621       2.606       2.591       2.576       2.580       2.585       2.590       2.594       2.608       2.621       2.635       2.649       2.646       2.643       2.640      17.379
    3365.400    2594.288      11.041      61.544     100.422     146.299       2.588       7.796       2.624       2.615       2.606       2.597       2.588       2.587       2.585       2.583       2.582       2.599       2.615       2.632       2.649       2.643       2.637       2.631      17.475
    3365.600    2594.287      10.713      60.658     100.623     141.514       2.591       7.632       2.612       2.609       2.606       2.603       2.600       2.593       2.585       2.577       2.570       2.590       2.609       2.629       2.649       2.640       2.631       2.621      17.811
    3365.800    2594.286      13.179      60.156     100.691     133.234       2.591       7.568       2.606       2.606       2.606       2.606       2.606       2.599       2.591       2.583       2.576       2.594       2.612       2.631       2.649       2.638       2.628       2.617      17.907
    3366.000    2594.286      10.015      62.952     101.034     130.485       2.591       7.605       2.606       2.606       2.606       2.606       2.606       2.605       2.603       2.602       2.600       2.612       2.624       2.637       2.649       2.638       2.627       2.617      17.859
    3366.200    2594.285      10.033      62.952     101.446     133.268       2.592       7.641       2.606       2.606       2.606       2.606       2.606       2.611       2.615       2.620       2.624       2.631       2.637       2.643       2.649       2.638       2.627       2.617      17.667
    3366.400    2594.284      13.087      60.116     101.858     136.050       2.595       7.678       2.606       2.606       2.606       2.606       2.606       2.617       2.627       2.638       2.649       2.649       2.649       2.649       2.649       2.638       2.627       2.617      17.533
    3366.600    2594.283      11.060      60.418     102.269     138.832       2.602       7.349       2.585       2.585       2.585       2.585       2.585       2.590       2.596       2.601       2.606       2.606       2.606       2.606       2.606       2.601       2.596       2.590      17.456
    3366.800    2594.283      11.823      61.695     102.601     143.893       2.605       7.021       2.564       2.564       2.564       2.564       2.564       2.564       2.564       2.564       2.564       2.564       2.564       2.564       2.564       2.564       2.564       2.564      17.431
    3367.000    2594.282      12.466      63.024     102.853     158.068       2.582       6.276       2.564       2.564       2.564       2.564       2.581       2.564       2.564       2.564       2.564       2.567       2.571       2.574       2.578       2.574       2.571       2.567      17.610
