~VERSION INFORMATION SECTION
VERS.           2.0                           : CWLS LOG ASCII STANDARD - VERSION 2.0
WRAP.           NO                            : ONE LINE PER DEPTH STEP
~WELL INFORMATION SECTION
#MNEM.UNIT      VALUE/NAME                    : DESCRIPTION
#-----------------------------------------------------------------------------
STRT.M          3070.200                      : START DEPTH
STOP.M          3404.800                      : STOP DEPTH
STEP.M          0.200                         : STEP
NULL.           -999.250                      : NULL VALUE
COMP.           “‘ ¿Œ "—— "                   : COMPANY
WELL.           61/6                          : WELL
FLD.            Ã‡ÒÚÂ¸ÂÎ¸ÒÍÓÂ                : FIELD
LOC.                                          : LOCATION
CNTY.           Ã‡ÒÚÂ¸ÂÎ¸ÒÍÓÂ                : COUNTY
STAT.                                         : STATE
CTRY.                                         : COUNTRY
SRVC.           ”ÕÕ¡ ŒŒŒ "“Õ√-√ÛÔÔ"          : SERVICE COMPANY
DATE.           2025.08.16                    : LOG DATE
UWI.                                          : UNIQUE WELL ID
API.                                          : API NUMBER
~CURVE INFORMATION SECTION
#MNEM.UNITS     API CODES                     : DESCRIPTION OF MNEMONIC
#-----------------------------------------------------------------------------
DEPTH.M                                       : DEPTH
TVDSS.M                                       : TRUE VERTICAL DEPTH SUBSEA
ROP.M_H                                       : RATE OF PENETRATION
GR.API                                        : GAMMA RAY
P06H.OHMM                                     : PHASE SHIFT RESISTIVITY 0.6 METER SPACING AT 1.8 MHz
P10L.OHMM                                     : PHASE SHIFT RESISTIVITY 1.0 METER SPACING AT 400 KHz
RHO.GCC                                       : DENSITY
RHOIMG#.GCC                                   : RAW DENSITY IMAGE
RHOS01.GCC                                    : AZIMUTAL DENSITY 1
RHOS02.GCC                                    : AZIMUTAL DENSITY 2
RHOS03.GCC                                    : AZIMUTAL DENSITY 3
RHOS04.GCC                                    : AZIMUTAL DENSITY 4
RHOS05.GCC                                    : AZIMUTAL DENSITY 5
RHOS06.GCC                                    : AZIMUTAL DENSITY 6
RHOS07.GCC                                    : AZIMUTAL DENSITY 7
RHOS08.GCC                                    : AZIMUTAL DENSITY 8
RHOS09.GCC                                    : AZIMUTAL DENSITY 9
RHOS10.GCC                                    : AZIMUTAL DENSITY 10
RHOS11.GCC                                    : AZIMUTAL DENSITY 11
RHOS12.GCC                                    : AZIMUTAL DENSITY 12
RHOS13.GCC                                    : AZIMUTAL DENSITY 13
RHOS14.GCC                                    : AZIMUTAL DENSITY 14
RHOS15.GCC                                    : AZIMUTAL DENSITY 15
RHOS16.GCC                                    : AZIMUTAL DENSITY 16
WODCLS.PERCENT                                : HYDROGEN CONTENTS CALIBRATION FROM LINESTONE MATRIX
~PARAMETER INFORMATION SECTION
#-----------------------------------------------------------------------------
RTYPE.          √ , » , √√ , 2ÕÕ              : RESEARCH TYPE
DATASRC.        “—  Ó‚ÂÚ                     : DATA SOURCE
DHOLE.          146.00                        : HOLE DIAMETER
GROUP.          ÕÕ¡                           : GROUP NUMBER
ENG1.           ƒ‡Ì¸¯ËÌ Õ.¬.                  : NNB ENGINEER 1
ENG2.                                         : NNB ENGINEER 2
ENG3.                                         : NNB ENGINEER 3
TLMENG1.        «‡˚ÔÓ‚ –.–.                  : TELEMETRY ENGINEER 1
TLMENG2.        ÿ‡ÙË„ÛÎÎËÌ ƒ.».               : TELEMETRY ENGINEER 2
TLMENG3.                                      : TELEMETRY ENGINEER 3
PHONE.          +79172217478                  : PHONE NUMBER
EMAIL.          tng.nnb1@mail.ru              : EMAIL
ADDEMAIL.                                     : ADDITIONAL EMAIL
~A     DEPTH       TVDSS         ROP          GR        P06H        P10L         RHO     RHOIMG#      RHOS01      RHOS02      RHOS03      RHOS04      RHOS05      RHOS06      RHOS07      RHOS08      RHOS09      RHOS10      RHOS11      RHOS12      RHOS13      RHOS14      RHOS15      RHOS16      WODCLS
# ...
    3270.000    2593.435       9.766      60.650      94.266     110.255       2.627       7.767       2.620       2.624       2.627       2.631       2.635       2.627       2.620       2.613       2.606       2.592       2.578       2.564       2.550       2.567       2.585       2.603      15.517
    3270.200    2593.437       8.432      60.650      94.391     114.742       2.623       7.603       2.606       2.612       2.617       2.622       2.627       2.622       2.617       2.612       2.606       2.601       2.596       2.590       2.585       2.590       2.596       2.601      16.129
    3270.400    2593.439       7.970      60.349      93.568     128.178       2.607       7.578       2.606       2.601       2.596       2.590       2.585       2.585       2.585       2.585       2.585       2.596       2.606       2.617       2.627       2.622       2.617       2.612      16.418
    3270.600    2593.441      10.611      59.745      93.156     137.213       2.594      11.306       2.635       2.624       2.613       2.603       2.592       2.603       2.613       2.624       2.635       2.627       2.620       2.613       2.606       2.613       2.620       2.627      16.386
    3270.800    2593.443      10.523      58.872      93.156     128.639       2.595      18.835       2.691       2.681       2.670       2.659       2.649       2.681       2.713       2.744       2.776       2.734       2.691       2.649       2.606       2.628       2.649       2.670      16.225
    3271.000    2593.444      12.990      56.923      93.097     117.752       2.600       7.167       2.564       2.585       2.606       2.627       2.649       2.649       2.649       2.649       2.649       2.649       2.649       2.649       2.649       2.628       2.606       2.585      16.097
    3271.200    2593.446      13.791      55.357      92.799     115.218       2.596       7.607       2.606       2.617       2.628       2.638       2.649       2.638       2.628       2.617       2.606       2.606       2.606       2.606       2.606       2.606       2.606       2.606      16.225
    3271.400    2593.448      10.376      56.403      92.441     114.772       2.591       7.678       2.606       2.606       2.606       2.606       2.606       2.617       2.627       2.638       2.649       2.649       2.649       2.649       2.649       2.638       2.628       2.617      16.418
    3271.600    2593.450      10.666      58.102      91.969     115.407       2.592      11.476       2.589       2.602       2.615       2.627       2.640       2.647       2.653       2.659       2.666       2.657       2.649       2.640       2.632       2.621       2.611       2.600      16.557
    3271.800    2593.451      12.309      59.801      91.041     120.371       2.595      15.273       2.572       2.598       2.623       2.649       2.674       2.676       2.678       2.681       2.683       2.666       2.649       2.632       2.615       2.604       2.594       2.583      16.482
    3272.000    2593.453      11.674      61.263      90.000     126.417       2.606      17.436       2.585       2.606       2.627       2.649       2.670       2.675       2.681       2.686       2.691       2.681       2.670       2.659       2.649       2.633       2.617       2.601      16.129
    3272.200    2593.455      11.037      62.488      89.822     128.214       2.622      14.356       2.606       2.617       2.627       2.638       2.649       2.656       2.663       2.670       2.677       2.674       2.670       2.666       2.663       2.649       2.635       2.620      15.550
    3272.400    2593.457      10.186      63.381      90.308     116.799       2.620       7.671       2.606       2.617       2.627       2.638       2.649       2.649       2.649       2.649       2.649       2.638       2.628       2.617       2.606       2.606       2.606       2.606      15.308
    3272.600    2593.459       9.460      62.944      89.995     116.275       2.616       6.023       2.493       2.532       2.571       2.610       2.649       2.649       2.649       2.649       2.649       2.638       2.628       2.617       2.606       2.606       2.606       2.606      15.405
    3272.800    2593.460      10.840      62.049      89.483     119.537       2.615       5.817       2.479       2.521       2.564       2.606       2.649       2.649       2.649       2.649       2.649       2.638       2.628       2.617       2.606       2.606       2.606       2.606      15.453
    3273.000    2593.462      10.863      61.415      89.196     121.844       2.618       7.053       2.564       2.585       2.606       2.628       2.649       2.649       2.649       2.649       2.649       2.638       2.627       2.617       2.606       2.606       2.606       2.606      15.453
    3273.200    2593.464      10.093      63.075      89.809     120.333       2.612       7.665       2.606       2.613       2.620       2.628       2.635       2.638       2.642       2.645       2.649       2.631       2.613       2.596       2.578       2.585       2.592       2.599      15.502
    3273.400    2593.466       9.371      62.944      90.646     117.867       2.598       7.654       2.606       2.606       2.606       2.606       2.606       2.617       2.628       2.638       2.649       2.617       2.585       2.553       2.521       2.543       2.564       2.585      15.598
    3273.600    2593.468       9.589      62.559      91.483     115.401       2.591       7.410       2.585       2.585       2.585       2.585       2.585       2.601       2.617       2.633       2.649       2.633       2.617       2.601       2.585       2.585       2.585       2.585      15.569
    3273.800    2593.469      11.033      62.949      92.319     112.935       2.588       7.165       2.564       2.564       2.564       2.564       2.564       2.585       2.606       2.628       2.649       2.649       2.649       2.649       2.649       2.628       2.606       2.585      15.415
    3274.000    2593.471      11.407      60.666      92.677     111.127       2.600       7.418       2.585       2.585       2.585       2.585       2.585       2.601       2.617       2.633       2.649       2.643       2.638       2.633       2.627       2.617       2.606       2.596      15.221
    3274.200    2593.473      10.487      58.768      91.116     111.953       2.618       7.670       2.606       2.606       2.606       2.606       2.606       2.617       2.628       2.638       2.649       2.638       2.628       2.617       2.606       2.606       2.606       2.606      14.870
    3274.400    2593.475       8.341      58.021      89.076     113.438       2.636      12.941       2.627       2.628       2.628       2.628       2.627       2.638       2.649       2.659       2.670       2.665       2.659       2.654       2.649       2.643       2.638       2.633      14.480
    3274.600    2593.477       9.559      58.649      87.036     114.922       2.650      18.211       2.649       2.649       2.649       2.649       2.649       2.659       2.670       2.681       2.691       2.691       2.691       2.691       2.691       2.681       2.670       2.659      14.750
    3274.800    2593.479      10.996      60.657      85.722     114.554       2.643      17.954       2.627       2.628       2.627       2.628       2.627       2.643       2.659       2.675       2.691       2.691       2.691       2.691       2.691       2.675       2.659       2.643      15.681
    3275.000    2593.480      10.311      62.692      85.133     112.333       2.632      17.698       2.606       2.606       2.606       2.606       2.606       2.627       2.649       2.670       2.691       2.691       2.691       2.691       2.691       2.670       2.649       2.628      16.337
    3275.200    2593.482      10.802      63.329      84.545     110.113       2.620      12.652       2.606       2.612       2.617       2.622       2.627       2.633       2.638       2.643       2.649       2.649       2.649       2.649       2.649       2.638       2.628       2.617      15.901
